$IIVHW,175.0,T,271,M,000.0,N,000.0,K*4C
$IIHDM,271,M*38
$IIMWV,035.5,R,007.0,N,A*39
!AIVDO,1,1,,,B39MRQP000:j7?WdJrH03wk5sP06,0*17
$IIDBT,009.1,f,002.73,M,,F*01
$IIVHW,175.0,T,271,M,000.0,N,000.0,K*4C
$IIMTW,039.0,C*29
$IIHDM,272,M*3B
$IIRSA,014,A,,V*62
$IIMTW,039.2,C*2B
!AIVDO,1,1,,,B39MRQP000:j7?WdJrD03wkUsP06,0*7B
$IIHDM,272,M*3B
$IIMWV,032,R,007.1,N,A*24
$IIDBT,009.0,f,002.70,M,,F*03
$IIVHW,175.0,T,272,M,000.0,N,000.0,K*4F
$IIMTW,039.0,C*29
$IIHDM,272,M*3B
$IIRSA,014,A,,V*62
$IIMTW,039.2,C*2B
$IIHDM,272,M*3B
$IIMWV,025,R,008.7,N,A*2B
!AIVDO,1,1,,,B39MRQP000:j7?7dJrD03wl5sP06,0*7C
$IIDBT,009.3,f,002.79,M,,F*09
$IIVHW,175.0,T,272,M,000.0,N,000.0,K*4F
$IIMTW,039.0,C*29
$IIHDM,272,M*3B
$IIRSA,014,A,,V*62
$IIMTW,039.2,C*2B
$GPRMC,075041.00,A,5347.12690,N,00925.34064,E,0.011,,160516,,,A*70
$IIHDM,272,M*3B
!AIVDO,1,1,,,B39MRQP000:j7?7dJrD03wlUsP06,0*1C
$GPGBS,075041.00,2.5,1.5,4.0,,,,*41
$IIDBT,009.3,f,002.79,M,,F*09
$IIVHW,175.0,T,272,M,000.0,N,000.0,K*4F
$IIMTW,039.0,C*29
$IIHDM,272,M*3B
$IIRSA,014,A,,V*62
$IIMTW,039.2,C*2B
$IIMWV,051.5,R,011.5,N,A*39
$IIHDM,272,M*3B
!AIVDO,1,1,,,B39MRQP000:j7?7dJr@03wm5sP06,0*79
$IIDBT,009.1,f,002.73,M,,F*01
$IIVHW,175.0,T,272,M,000.0,N,000.0,K*4F
$IIMTW,039.0,C*29
$IIMTW,039.2,C*2B
$IIHDM,272,M*3B
$IIRSA,014,A,,V*62
$IIMWV,044,R,012.1,N,A*21
$IIHDM,272,M*3B
!AIVDO,1,1,,,B39MRQP000:j7>WdJr<03wmUsP06,0*04
$IIDBT,009.6,f,002.88,M,,F*02
$IIVHW,175.0,T,272,M,000.0,N,000.0,K*4F
$IIMTW,039.0,C*29
$IIMTW,039.2,C*2B
$IIHDM,271,M*38
$IIRSA,014,A,,V*62
$IIMWV,019,R,012.7,N,A*2F
$IIHDM,271,M*38
!AIVDO,1,1,,,B39MRQP000:j7>WdJr<03wn5sP06,0*67
$IIDBT,009.3,f,002.79,M,,F*09
$IIVHW,175.0,T,271,M,000.0,N,000.0,K*4C
$IIMTW,039.0,C*29
$IIMTW,039.2,C*2B
$IIHDM,271,M*38
$IIRSA,014,A,,V*62
$GPRMC,075045.00,A,5347.12673,N,00925.34055,E,0.004,,160516,,,A*7F
$IIMWV,355.5,R,011.6,N,A*3D
$IIHDM,271,M*38
$GPGBS,075045.00,2.5,1.5,4.0,,,,*45
!AIVDO,1,1,,,B39MRQP000:j7>WdJr<03wnUsP06,0*07
$IIDBT,009.3,f,002.79,M,,F*09
$IIVHW,175.0,T,271,M,000.0,N,000.0,K*4C
$IIMTW,039.0,C*29
$IIMTW,039.2,C*2B
$IIHDM,271,M*38
$IIRSA,014,A,,V*62
$IIMWV,002.5,R,009.0,N,A*33
$IIHDM,271,M*38
!AIVDO,1,1,,,B39MRQP000:j7>WdJr<03wo5sP06,0*66
$IIDBT,009.4,f,002.82,M,,F*0A
$IIVHW,175.0,T,271,M,000.0,N,000.0,K*4C
$IIMTW,039.0,C*29
$IIMTW,039.2,C*2B
$IIHDM,271,M*38
$IIRSA,014,A,,V*62
$IIMWV,029.5,R,008.0,N,A*3B
$IIHDM,271,M*38
!AIVDO,1,1,,,B39MRQP000:j7?7dJr<03woUsP06,0*67
$IIDBT,008.9,f,002.67,M,,F*0D
$IIVHW,175.0,T,271,M,000.0,N,000.0,K*4C
$IIMTW,039.0,C*29
$IIMTW,039.2,C*2B
$IIMWV,025,R,006.7,N,A*25
$IIHDM,271,M*38
$IIRSA,014,A,,V*62
$GPGBS,075048.00,2.5,1.5,4.0,,,,*48
$IIHDM,271,M*38
!AIVDO,1,1,,,B39MRQP000:j7?7dJr@03wp5sP06,0*64
$IIDBT,009.2,f,002.76,M,,F*07
$IIMTW,039.0,C*29
$IIMTW,039.2,C*2B
$IIMWV,062,R,006.6,N,A*27
$GPRMC,075049.00,A,5347.12683,N,00925.34073,E,0.014,,160516,,,A*79
$IIHDM,271,M*38
$IIRSA,014,A,,V*62
!AIVDO,1,1,,,B39MRQP000:j7?WdJr@03wpUsP06,0*64
$IIHDM,271,M*38
$IIDBT,009.1,f,002.73,M,,F*01
$IIVHW,175.0,T,271,M,000.0,N,000.0,K*4C
$IIMTW,039.0,C*29
$IIMTW,039.2,C*2B
$IIMWV,018.5,R,008.3,N,A*3A
$IIHDM,271,M*38
$IIRSA,014,A,,V*62
$IIHDM,271,M*38
$IIDBT,009.2,f,002.76,M,,F*07
!AIVDO,1,1,,,B39MRQP000:j7?WdJrBh7wq5sP06,0*5B
$IIVHW,175.0,T,271,M,000.0,N,000.0,K*4C
$IIMTW,039.0,C*29
$IIMTW,039.2,C*2B
$IIMWV,004,R,010.8,N,A*2E
$IIHDM,271,M*38
$IIRSA,014,A,,V*62
$IIHDM,271,M*38
$IIDBT,009.3,f,002.79,M,,F*09
$IIVHW,175.0,T,271,M,000.0,N,000.0,K*4C
$IIMTW,039.0,C*29
!AIVDO,1,1,,,B39MRQP000:j7@7dJr@03wqUsP06,0*7A
$IIMTW,039.2,C*2B
$IIMWV,031.5,R,011.2,N,A*38
$IIHDM,271,M*38
$IIRSA,014,A,,V*62
$GPGBS,075052.00,2.5,1.5,4.0,,,,*43
$IIDBT,009.5,f,002.85,M,,F*0C
!AIVDO,1,1,,,B39MRQP000:j7@7dJr@03wr5sP06,0*19
$IIHDM,271,M*38
$IIVHW,175.0,T,271,M,000.0,N,000.0,K*4C
$IIMTW,039.0,C*29
$IIMWV,054.5,R,012.7,N,A*3D
$GPRMC,075053.00,A,5347.12684,N,00925.34087,E,0.004,,160516,,,A*7F
$IIMTW,039.2,C*2B
$IIHDM,271,M*38
$IIRSA,014,A,,V*62
$IIHDM,271,M*38
!AIVDO,1,1,,,B39MRQP000:j7@7dJr@03wrUsP06,0*79
$IIMWV,040.5,R,012.8,N,A*37
$IIDBT,009.2,f,002.76,M,,F*07
$IIVHW,175.0,T,271,M,000.0,N,000.0,K*4C
$IIMTW,039.0,C*29
$IIMTW,039.2,C*2B
$IIHDM,271,M*38
$IIRSA,014,A,,V*62
$IIDBT,009.5,f,002.85,M,,F*0C
!AIVDO,1,1,,,B39MRQP000:j7@WdJr@03ws5sP06,0*78
$IIVHW,175.0,T,271,M,000.0,N,000.0,K*4C
$IIHDM,271,M*38
$IIMTW,039.0,C*29
$IIMWV,036.5,R,014.1,N,A*39
$IIMTW,039.2,C*2B
$IIHDM,271,M*38
$IIRSA,014,A,,V*62
!AIVDM,1,1,,A,H39mdg0DU<84E80000000000000,2*54
!AIVDO,1,1,,,B39MRQP000:j7@WdJr@03wsUsP06,0*18
$IIDBT,008.9,f,002.67,M,,F*0D
$IIVHW,175.0,T,271,M,000.0,N,000.0,K*4C
$IIMTW,038.0,C*28
$IIHDM,271,M*38
$IIMWV,045,R,015.0,N,A*26
$IIMTW,038.8,C*20
$IIHDM,271,M*38
$IIRSA,014,A,,V*62
$GPGBS,075056.00,2.5,1.5,4.0,,,,*47
$IIMWV,054.5,R,016.3,N,A*3D
$IIDBT,009.0,f,002.70,M,,F*03
$IIVHW,175.0,T,271,M,000.0,N,000.0,K*4C
$IIMTW,038.0,C*28
$IIMTW,038.8,C*20
$IIHDM,271,M*38
!AIVDO,1,1,,,B39MRQP000:j7@WdJr<03wt5sP06,0*03
$GPRMC,075057.00,A,5347.12670,N,00925.34106,E,0.020,276.74,160516,,,A*60
$IIHDM,271,M*38
$IIRSA,014,A,,V*62
$IIMWV,040,R,016.8,N,A*28
$IIDBT,009.2,f,002.76,M,,F*07
$IIVHW,276.7,T,271,M,000.0,N,000.0,K*4B
$IIMTW,038.0,C*28
$IIMTW,038.8,C*20
$IIHDM,271,M*38
!AIVDO,1,1,,,B39MRQP000:j7A7dJr>dwwtUsP06,0*10
$IIHDM,271,M*38
$IIRSA,014,A,,V*62
$IIMWV,037,R,014.1,N,A*23
$IIDBT,009.5,f,002.85,M,,F*0C
$IIVHW,175.0,T,271,M,000.0,N,000.0,K*4C
$IIMTW,038.0,C*28
$IIMTW,038.8,C*20
!AIVDO,1,1,,,B39MRQP000:j7AWdJr803wu5sP06,0*07
$IIHDM,271,M*38
$IIRSA,014,A,,V*62
$IIMWV,054.5,R,014.4,N,A*38
$IIDBT,009.6,f,002.88,M,,F*02
$IIVHW,175.0,T,271,M,000.0,N,000.0,K*4C
$IIMTW,039.0,C*29
$IIMTW,039.2,C*2B
$IIHDM,271,M*38
!AIVDO,1,1,,,B39MRQP000:j7B7dJr803wuUsP06,0*04
$AITXT,01,01,70,Leaving a DSC Receivable Window^2C Chan B*7D
$GPGBS,075100.00,2.5,1.5,4.0,,,,*45
$IIHDM,271,M*38
$IIRSA,014,A,,V*62
$IIMWV,017,R,014.7,N,A*27
$IIDBT,010.4,f,003.12,M,,F*0A
$IIVHW,175.0,T,271,M,000.0,N,000.0,K*4C
$IIMTW,039.0,C*29
$IIMTW,039.2,C*2B
$IIHDM,271,M*38
$GPRMC,075101.00,A,5347.12660,N,00925.34150,E,0.008,,160516,,,A*74
!AIVDO,1,1,,,B39MRQP000:j7CWdJr803wPUsP06,0*40
$IIMWV,008,R,020.9,N,A*20
$IIHDM,271,M*38
$IIRSA,014,A,,V*62
$IIDBT,010.1,f,003.3,M,,F*3F
$IIMTW,039.0,C*29
!AIVDO,1,1,,,B39MRQP000:j7CWdJr403wQ5sP06,0*2D
$IIVHW,175.0,T,271,M,000.0,N,000.0,K*4C
$IIMTW,039.2,C*2B
$IIHDM,272,M*3B
$IIMWV,020,R,016.7,N,A*21
$IIHDM,272,M*3B
$IIRSA,014,A,,V*62
$IIDBT,010.3,f,003.9,M,,F*37
$IIMTW,039.0,C*29
$IIMTW,039.2,C*2B
$IIHDM,272,M*3B
!AIVDO,1,1,,,B39MRQP000:j7D7dJr403wQUsP06,0*2A
$IIMWV,030,R,015.0,N,A*24
$IIHDM,272,M*3B
$IIRSA,014,A,,V*62
$IIDBT,010.2,f,003.6,M,,F*39
$IIVHW,175.0,T,272,M,000.0,N,000.0,K*4F
$IIMTW,039.0,C*29
$IIMTW,039.2,C*2B
$IIHDM,272,M*3B
!AIVDO,1,1,,,B39MRQP000:j7D7dJr403wR5sP06,0*49
$IIMWV,353.5,R,015.1,N,A*38
$GPGBS,075104.00,2.5,1.5,4.0,,,,*41
$IIHDM,272,M*3B
$IIRSA,014,A,,V*62
$IIDBT,009.9,f,002.97,M,,F*03
$IIVHW,175.0,T,272,M,000.0,N,000.0,K*4F
$IIMTW,039.0,C*29
$IIMTW,039.2,C*2B
$GPRMC,075105.00,A,5347.12660,N,00925.34170,E,0.012,,160516,,,A*79
$IIHDM,272,M*3B
!AIVDO,1,1,,,B39MRQP000:j7DWdJr803wRUsP06,0*45
$IIHDM,272,M*3B
$IIRSA,014,A,,V*62
$IIDBT,010.3,f,003.9,M,,F*37
$IIVHW,175.0,T,272,M,000.0,N,000.0,K*4F
$IIMTW,039.0,C*29
$IIMTW,039.2,C*2B
!AIVDM,1,1,,A,H39mdg4T>F34u5r44klom01P0130,0*71
$IIHDM,272,M*3B
!AIVDO,1,1,,,B39MRQP000:j7D7dJr403wS5sP06,0*48
$IIMWV,038.5,R,014.7,N,A*31
$IIHDM,271,M*38
$IIRSA,014,A,,V*62
$IIDBT,009.3,f,002.79,M,,F*09
$IIVHW,175.0,T,271,M,000.0,N,000.0,K*4C
$IIMTW,039.0,C*29
$IIMTW,039.2,C*2B
$IIHDM,271,M*38
$IIMWV,024,R,014.1,N,A*21
!AIVDO,1,1,,,B39MRQP000:j7D7dJr403wSUsP06,0*28
$IIDBT,009.2,f,002.76,M,,F*07
$IIHDM,271,M*38
$IIRSA,014,A,,V*62
$IIVHW,175.0,T,271,M,000.0,N,000.0,K*4C7
$IIMTW,039.2,C*2B
$IIMWV,034,R,012.7,N,A*20
$IIHDM,271,M*38
!AIVDO,1,1,,,B39MRQP000:j7D7dJr6e?wT5sP06,0*14
$GPGBS,075108.00,2.5,1.5,4.0,,,,*4D
$IIDBT,008.8,f,002.64,M,,F*0F
$IIVHW,175.0,T,271,M,000.0,N,000.0,K*4C
$IIMTW,039.0,C*29
$IIHDM,271,M*38
$IIRSA,014,A,,V*62
$IIMTW,039.2,C*2B
$GPRMC,075109.00,A,5347.12644,N,00925.34168,E,0.020,279.40,160516,,,A*6D
$IIMWV,029.5,R,011.3,N,A*30
!AIVDO,1,1,,,B39MRQP000:j7D7dJr2fcwTUsP06,0*2F
$IIHDM,271,M*38
$IIDBT,009.0,f,002.70,M,,F*03
$IIVHW,279.4,T,271,M,000.0,N,000.0,K*47
$IIMTW,039.0,C*29
$IIMTW,039.2,C*2B
$IIHDM,271,M*38
$IIRSA,014,A,,V*62
$IIMWV,011.5,R,012.1,N,A*3A
$IIHDM,271,M*38
!AIVDO,1,1,,,B39MRQP000:j7D7dJqvh3wU5sP06,0*57
$IIDBT,009.6,f,002.88,M,,F*02
$IIVHW,175.0,T,271,M,000.0,N,000.0,K*4C
$IIMTW,039.0,C*29
$IIMTW,039.2,C*2B
$IIHDM,271,M*38
$IIRSA,014,A,,V*62
$IIMWV,024,R,011.3,N,A*26
!AIVDO,1,1,,,B39MRQP000:j7DWdJqvi7wUUsP06,0*52
$IIHDM,271,M*38
$IIDBT,009.5,f,002.85,M,,F*0C
$IIVHW,175.0,T,271,M,000.0,N,000.0,K*4C
$IIMTW,039.0,C*29
$IIMTW,039.2,C*2B
$IIHDM,271,M*38
$IIRSA,014,A,,V*62
$IIMWV,008,R,010.1,N,A*2B
$IIHDM,271,M*38
!AIVDO,1,1,,,B39MRQP000:j7DWdJqrjSwV5sP06,0*52
$GPGBS,075112.00,2.5,1.5,4.0,,,,*46
$IIDBT,009.3,f,002.79,M,,F*09
$IIVHW,175.0,T,271,M,000.0,N,000.0,K*4C
$IIMTW,039.2,C*2B
$IIHDM,271,M*38
$IIRSA,014,A,,V*62
$IIMWV,010.5,R,011.6,N,A*3F
$GPRMC,075113.00,A,5347.12622,N,00925.34184,E,0.019,,160516,,,A*78
!AIVDO,1,1,,,B39MRQP000:j7E7dJqp03wVUsP06,0*6B
$IIHDM,271,M*38
$IIDBT,009.5,f,002.85,M,,F*0C
$IIHDM,271,M*38
$IIRSA,014,A,,V*62
$IIVHW,175.0,T,271,M,000.0,N,000.0,K*4C
$IIMTW,039.0,C*29
$IIMWV,018,R,010.8,N,A*23
!AIVDO,1,1,,,B39MRQP000:j7E7dJqnjGwW5sP06,0*3A
$IIHDM,271,M*38
$IIDBT,009.5,f,002.85,M,,F*0C
$IIVHW,175.0,T,271,M,000.0,N,000.0,K*4C
$IIMTW,039.0,C*29
$IIMTW,039.2,C*2B
$IIMWV,039.5,R,014.3,N,A*34
$IIHDM,271,M*38
$IIRSA,014,A,,V*62
!AIVDO,1,1,,,B39MRQP000:j7DWdJql03wWUsP06,0*17
$IIHDM,271,M*38
$IIDBT,009.6,f,002.88,M,,F*02
$IIVHW,175.0,T,271,M,000.0,N,000.0,K*4C
$IIMTW,039.0,C*29
$IIMTW,039.2,C*2B
$IIMWV,038.5,R,013.8,N,A*39
$IIHDM,271,M*38
$IIRSA,014,A,,V*62
!AIVDO,1,1,,,B39MRQP000:j7D7dJql03w`5sP06,0*20
$IIHDM,271,M*38
$GPGBS,075116.00,2.5,1.5,4.0,,,,*42
$AIALR,075116,057,A,V,AIS: 12v alarm*3D
$IIDBT,008.9,f,002.67,M,,F*0D
$IIVHW,175.0,T,271,M,000.0,N,000.0,K*4C
$IIMTW,039.0,C*29
$IIMTW,039.2,C*2B
$IIMWV,021,R,014.4,N,A*21
$GPRMC,075117.00,A,5347.12616,N,00925.34156,E,0.013,,160516,,,A*7E
$IIHDM,270,M*39
$IIRSA,014,A,,V*62
!AIVDO,1,1,,,B39MRQP000:j7CWdJql03w`UsP06,0*27
$IIHDM,270,M*39
$IIDBT,009.4,f,002.82,M,,F*0A
$IIVHW,175.0,T,270,M,000.0,N,000.0,K*4D
$IIMTW,039.0,C*29
$IIMWV,033.5,R,012.3,N,A*38
$AIALR,075116,057,V,V,AIS: 12v alarm*2A
$IIHDM,271,M*38
$IIRSA,014,A,,V*62
!AIVDO,1,1,,,B39MRQP000:j7C7dJql03wa5sP06,0*26
$IIHDM,271,M*38
$IIDBT,009.6,f,002.88,M,,F*02
$IIVHW,175.0,T,271,M,000.0,N,000.0,K*4C
$IIMTW,039.0,C*29
$IIMWV,059.5,R,013.1,N,A*37
$IIMTW,039.2,C*2B
$IIHDM,271,M*38
$IIRSA,014,A,,V*62
!AIVDO,1,1,,,B39MRQP000:j7B7dJql03waUsP06,0*47
$IIHDM,271,M*38
$IIDBT,009.1,f,002.73,M,,F*01
$IIMWV,051.5,R,011.4,N,A*38
$IIMTW,039.0,C*29
$IIVHW,175.0,T,271,M,000.0,N,000.0,K*4C0$IIMTW,039.2,C*2B
$IIHDM,271,M*38
$IIRSA,014,A,,V*62
$GPGBS,075120.00,2.5,1.5,4.0,,,,*47
!AIVDO,1,1,,,B39MRQP000:j7A7dJqp03wb5sP06,0*3B
$IIHDM,271,M*38
$IIDBT,009.4,f,002.82,M,,F*0A
$IIVHW,175.0,T,271,M,000.0,N,000.0,K*4C
$IIMTW,039.0,C*29
$IIMWV,029.5,R,010.6,N,A*34
$IIMTW,039.2,C*2B
$GPRMC,075121.00,A,5347.12624,N,00925.34098,E,0.019,,160516,,,A*73
$IIHDM,271,M*38
$IIRSA,014,A,,V*62
!AIVDO,1,1,,,B39MRQP000:j7@WdJqp03wbUsP06,0*3A
$IIMWV,016,R,012.1,N,A*26
$IIDBT,009.5,f,002.85,M,,F*0C
$IIVHW,175.0,T,271,M,000.0,N,000.0,K*4C
$IIHDM,271,M*38
$IIMTW,039.0,C*29
$IIMTW,039.2,C*2B
$IIHDM,271,M*38
$IIRSA,014,A,,V*62
!AIVDO,1,1,,,B39MRQP000:j7@7dJqp03wc5sP06,0*3B
$IIMWV,017,R,014.1,N,A*21
$IIDBT,009.6,f,002.88,M,,F*02
$IIVHW,175.0,T,271,M,000.0,N,000.0,K*4C
$IIMTW,039.0,C*29
$IIHDM,271,M*38
$IIMTW,039.2,C*2B
$IIHDM,271,M*38
$IIRSA,049,A,,V*6A
$IIMWV,039,R,012.7,N,A*2D
!AIVDO,1,1,,,B39MRQP000:j7?WdJqp03wcUsP06,0*44
$IIHDM,271,M*38
$IIDBT,009.1,f,002.73,M,,F*01
$IIVHW,175.0,T,271,M,000.0,N,000.0,K*4C
$IIMTW,039.0,C*29
$IIMTW,039.2,C*2B
$IIHDM,271,M*38
$IIRSA,014,A,,V*62
$IIMWV,027,R,010.1,N,A*26
$GPGBS,075124.00,2.5,1.5,4.0,18,,-82.0,36.9*61
!AIVDO,1,1,,,B39MRQP000:j7?7dJqp03wd5sP06,0*43
$IIDBT,009.1,f,002.73,M,,F*01
$IIVHW,175.0,T,271,M,000.0,N,000.0,K*4C
$IIMTW,039.0,C*29
$IIMTW,039.2,C*2B
$IIHDM,271,M*38
$GPRMC,075125.00,A,5347.12615,N,00925.34054,E,0.012,,160516,,,A*7E
$IIHDM,271,M*38
$IIRSA,014,A,,V*62
$IIMWV,027,R,010.8,N,A*2F
!AIVDO,1,1,,,B39MRQP000:j7>WdJql03wdUsP06,0*5E
$IIDBT,010.1,f,003.3,M,,F*3F
$IIVHW,175.0,T,271,M,000.0,N,000.0,K*4C
$IIMTW,039.0,C*29
$IIMTW,039.2,C*2B
$IIHDM,271,M*38
$IIHDM,271,M*38
$IIRSA,014,A,,V*62
$IIMWV,022.5,R,011.9,N,A*31
$IIDBT,010.1,f,003.3,M,,F*3F
!AIVDO,1,1,,,B39MRQP000:j7?WdJql03we5sP06,0*3E
$IIVHW,175.0,T,271,M,000.0,N,000.0,K*4C
$IIMTW,039.0,C*29
$IIMTW,039.2,C*2B
$IIHDM,271,M*38
$IIHDM,271,M*38
$IIMWV,046,R,012.3,N,A*21
!AIVDO,1,1,,,B39MRQP000:j7?7dJqh03weUsP06,0*3A
$IIDBT,009.7,f,002.91,M,,F*0B
$IIVHW,175.0,T,271,M,000.0,N,000.0,K*4C
$IIMTW,039.0,C*29
$IIMTW,039.2,C*2B
$IIHDM,271,M*38
$IIMWV,025,R,013.4,N,A*22
$IIHDM,271,M*38
$IIRSA,014,A,,V*62
$GPGBS,075128.00,2.5,1.5,4.0,18,,-84.2,46.6*61
!AIVDO,1,1,,,B39MRQP000:j7>7dJqh03wf5sP06,0*58
$IIDBT,009.7,f,002.91,M,,F*0B
$IIVHW,175.0,T,271,M,459.2,N,012.5,K*40
$IIMTW,039.0,C*29
$IIMTW,039.2,C*2B
$IIHDM,271,M*38
$GPRMC,075129.00,A,5347.12598,N,00925.34037,E,0.018,,160516,,,A*7B
$IIMWV,033,R,013.8,N,A*29
$IIHDM,271,M*38
$IIRSA,014,A,,V*62
!AIVDO,1,1,,,B39MRQP000:j7=WdJqd03wfUsP06,0*57
$IIDBT,009.3,f,002.79,M,,F*09
$IIVHW,175.0,T,271,M,000.0,N,000.0,K*4C
$IIMTW,039.0,C*29
$IIMTW,039.2,C*2B
$IIHDM,271,M*38
$IIMWV,045,R,013.8,N,A*28
$IIHDM,271,M*38
$IIRSA,014,A,,V*62
$IIDBT,009.0,f,002.70,M,,F*03
!AIVDO,1,1,,,B39MRQP000:j7?7dJqd03wg5sP06,0*54
$IIVHW,175.0,T,271,M,000.0,N,000.0,K*4C
$IIMTW,039.0,C*29
$IIMTW,039.2,C*2B
$IIHDM,271,M*38
$AITXT,01,01,70,Entered a DSC Receivable Window Chan A*46
$IIMWV,357,R,013.2,N,A*22
$IIHDM,270,M*39
$IIRSA,014,A,,V*62
!AIVDO,1,1,,,B39MRQP000:j7?7dJqfk7wgUsP06,0*69
$IIDBT,009.6,f,002.88,M,,F*02
$IIMTW,039.0,C*29
$IIVHW,175.0,T,270,M,000.0,N,000.0,K*4D
$IIMTW,039.2,C*2B
$IIHDM,270,M*39
$IIMWV,038,R,012.1,N,A*2A
$GPGBS,075132.00,2.5,1.5,4.0,18,,-79.2,50.1*68
$IIHDM,270,M*39
$IIRSA,014,A,,V*62
$IIDBT,009.0,f,002.70,M,,F*03
$IIVHW,175.0,T,270,M,000.0,N,000.0,K*4D
$IIMTW,039.0,C*29
$IIMTW,039.2,C*2B
!AIVDO,1,1,,,B39MRQP000:j7>WdJqfkowh5sP06,0*3F
$GPRMC,075133.00,A,5347.12592,N,00925.34043,E,0.030,289.49,160516,,,A*63
$IIHDM,270,M*39
$IIMWV,023.5,R,012.7,N,A*3D
$IIHDM,271,M*38
$IIRSA,014,A,,V*62
!AIVDO,1,1,,,B39MRQP000:j7>7dJqflswhUsP06,0*24
$IIDBT,009.5,f,002.85,M,,F*0C
$IIVHW,289.4,T,271,M,000.0,N,000.0,K*48
$IIMTW,039.0,C*29
$IIMTW,039.2,C*2B
$IIHDM,271,M*38
$IIMWV,030.5,R,013.8,N,A*31
$IIHDM,271,M*38
$IIRSA,014,A,,V*62
$IIDBT,009.1,f,002.73,M,,F*01
!AIVDM,1,1,,B,139TUb8P00Pc5KtNice>4?w4200k,0*22
$IIVHW,175.0,T,271,M,000.0,N,000.0,K*4C
$IIMTW,039.0,C*29
$IIMTW,039.2,C*2B
!AIVDO,1,1,,,B39MRQP000:j7=WdJqd03wi5sP06,0*38
$IIMWV,013,R,012.3,N,A*21
$IIHDM,270,M*39
$IIDBT,009.3,f,002.79,M,,F*09
$IIVHW,175.0,T,270,M,000.0,N,000.0,K*4D
$IIHDM,270,M*39
$IIRSA,014,A,,V*62
$IIMTW,039.0,C*29
$IIMTW,039.2,C*2B
!AIVDO,1,1,,,B39MRQP000:j7?WdJqd03wiUsP06,0*5A
$IIMWV,030.5,R,014.5,N,A*3B
$IIHDM,270,M*39
$GPGBS,075136.00,2.5,1.5,4.0,18,,-80.2,50.1*6A
$IIDBT,008.9,f,002.67,M,,F*0D
$IIVHW,175.0,T,270,M,000.0,N,000.0,K*4D
$IIHDM,270,M*39
$IIRSA,014,A,,V*62
$IIMTW,039.0,C*29
$IIMTW,039.2,C*2B
!AIVDO,1,1,,,B39MRQP000:j7?7dJqfk?wj5sP06,0*0C
$GPRMC,075137.00,A,5347.12605,N,00925.34094,E,0.010,,160516,,,A*72
$IIMWV,020.5,R,011.6,N,A*3C
$IIHDM,270,M*39
$IIDBT,009.0,f,002.70,M,,F*03
$IIVHW,175.0,T,270,M,000.0,N,000.0,K*4D
!AIVDO,1,1,,,B39MRQP000:j7@WdJqh03wjUsP06,0*2A
$IIHDM,270,M*39
$IIMTW,039.0,C*29
$IIMTW,039.2,C*2B
$IIRSA,014,A,,V*62
$IIMWV,036,R,010.4,N,A*23
$IIHDM,270,M*39
$IIDBT,009.6,f,002.88,M,,F*02
$IIVHW,175.0,T,270,M,000.0,N,000.0,K*4D
$IIMTW,039.0,C*29
$IIHDM,270,M*39
$IIRSA,014,A,,V*62
$IIMTW,039.2,C*2B
$IIMWV,046,R,010.7,N,A*27
!AIVDO,1,1,,,B39MRQP000:j7?7dJql03wkUsP06,0*30
$IIHDM,270,M*39
$IIDBT,008.9,f,002.67,M,,F*0D
$IIVHW,175.0,T,270,M,000.0,N,000.0,K*4D
$IIMTW,039.0,C*29
$IIMTW,039.2,C*2B
$IIHDM,271,M*38
$IIRSA,008,A,,V*6F
$IIMWV,034,R,009.2,N,A*2F
!AIVDO,1,1,,,B39MRQP000:j7>WdJqnp7wl5sP06,0*70
$IIHDM,271,M*38
$GPGBS,075140.00,2.5,1.5,4.0,,,,*41
$IIDBT,009.2,f,002.76,M,,F*07
$IIVHW,175.0,T,271,M,000.0,N,000.0,K*4C
$IIMTW,039.0,C*29
$IIMTW,039.2,C*2B
$IIHDM,271,M*38
$IIRSA,008,A,,V*6F
$IIMWV,043,R,008.9,N,A*25
$GPRMC,075141.00,A,5347.12612,N,00925.34043,E,0.009,,160516,,,A*77
!AIVDO,1,1,,,B39MRQP000:j7>7dJql03wlUsP06,0*36
$IIHDM,271,M*38
$IIDBT,009.0,f,002.70,M,,F*03
$IIVHW,175.0,T,271,M,000.0,N,000.0,K*4C
$IIMTW,039.0,C*29
$IIMTW,039.2,C*2B
$IIMWV,032,R,009.0,N,A*2B
$IIHDM,271,M*38
$IIRSA,005,A,,V*62
!AIVDO,1,1,,,B39MRQP000:j7=WdJql03wm5sP06,0*34
$IIHDM,271,M*38
$IIDBT,009.3,f,002.79,M,,F*09
$IIVHW,175.0,T,271,M,000.0,N,000.0,K*4C
$IIMTW,039.0,C*29
$IIMTW,039.2,C*2B
$IIMWV,028,R,009.9,N,A*29
$IIHDM,271,M*38
$IIRSA,003,A,,V*64
!AIVDO,1,1,,,B39MRQP000:j7=7dJql03wmUsP06,0*34
$IIHDM,271,M*38
!AIVDO,1,1,,,B39MRQP000:j7<WdJql03wn5sP06,0*36
$IIDBT,009.4,f,002.82,M,,F*0A
$IIVHW,175.0,T,271,M,000.0,N,000.0,K*4C
$IIMWV,020.5,R,014.9,N,A*36
$IIMTW,039.0,C*29
$IIHDM,271,M*38
$IIRSA,001,A,,V*66
$IIMTW,039.2,C*2B
$GPGBS,075144.00,2.5,1.5,4.0,18,,-84.2,50.9*63
$IIHDM,271,M*38
$IIDBT,009.4,f,002.82,M,,F*0A
$IIVHW,175.0,T,271,M,000.0,N,000.0,K*4C
$IIMTW,039.0,C*29
$IIMWV,011,R,013.5,N,A*24
$IIMTW,039.2,C*2B
$GPRMC,075145.00,A,5347.12612,N,00925.33999,E,0.013,,160516,,,A*71
$IIHDM,271,M*38
$IIRSA,001,A,,V*66
!AIVDO,1,1,,,B39MRQP000:j7;WdJql03wnUsP06,0*51
$IIHDM,271,M*38
$IIDBT,009.4,f,002.82,M,,F*0A
$IIVHW,175.0,T,271,M,000.0,N,000.0,K*4C
$IIMWV,038,R,011.1,N,A*29
$IIMTW,039.0,C*29
$IIMTW,039.2,C*2B
$IIHDM,271,M*38
$IIRSA,001,A,,V*66
!AIVDO,1,1,,,B39MRQP000:j7;7dJqnpOwo5sP06,0*6E
$IIHDM,271,M*38
$IIMWV,013.5,R,012.9,N,A*30
$IIDBT,009.5,f,002.85,M,,F*0C
$IIVHW,175.0,T,271,M,000.0,N,000.0,K*4C
$IIMTW,039.0,C*29
$IIMTW,039.2,C*2B
$IIHDM,271,M*38
$IIRSA,001,A,,V*66
!AIVDO,1,1,,,B39MRQP000:j7:7dJql03woUsP06,0*31
$IIHDM,271,M*38
$IIMWV,014,R,011.3,N,A*25
$IIDBT,009.1,f,002.73,M,,F*01
$IIVHW,175.0,T,271,M,000.0,N,000.0,K*4C
$IIMTW,035.0,C*25
$IIMTW,035.9,C*2C
$IIHDM,271,M*38
$IIRSA,001,A,,V*66
!AIVDO,1,1,,,B39MRQP000:j79WdJql03wp5sP06,0*2D
$GPGBS,075148.00,2.5,1.5,4.0,,,,*49
$IIMWV,048,R,008.7,N,A*20
$IIHDM,271,M*38
$IIDBT,009.3,f,002.79,M,,F*09
$IIVHW,175.0,T,271,M,000.0,N,000.0,K*4C
$IIMTW,035.0,C*25
$IIMTW,035.9,C*2C
$GPRMC,075149.00,A,5347.12617,N,00925.33945,E,0.014,,160516,,,A*7E
$IIHDM,271,M*38
$IIRSA,001,A,,V*66
!AIVDO,1,1,,,B39MRQP000:j797dJql03wpUsP06,0*2D
$IIMWV,024.5,R,010.5,N,A*3A
$IIHDM,271,M*38
$IIDBT,009.4,f,002.82,M,,F*0A
$IIMTW,035.0,C*25
$IIVHW,175.0,T,271,M,000.0,N,000.0,K*4C
$IIMTW,035.9,C*2C
$IIHDM,271,M*38
$IIRSA,001,A,,V*66
!AIVDO,1,1,,,B39MRQP000:j7:WdJqp03wq5sP06,0*33
$IIMWV,010,R,011.6,N,A*24
$IIDBT,009.4,f,002.82,M,,F*0A
$IIVHW,175.0,T,271,M,000.0,N,000.0,K*4C
$IIHDM,271,M*38
$IIMTW,035.0,C*25
$IIMTW,035.9,C*2C
$IIHDM,271,M*38
$IIRSA,001,A,,V*66
!AIVDO,1,1,,,B39MRQP000:j7:WdJql03wqUsP06,0*4F
$IIMWV,025.5,R,013.0,N,A*3D
$IIDBT,009.3,f,002.79,M,,F*09
$IIMTW,035.0,C*25
$IIHDM,271,M*38
$IIMTW,035.9,C*2C
$IIHDM,271,M*38
$IIRSA,001,A,,V*66
!AIVDO,1,1,,,B39MRQP000:j7:7dJql03wr5sP06,0*4C
$IIMWV,028.5,R,013.7,N,A*37
$GPGBS,075152.00,2.5,1.5,4.0,,,,*42
$IIDBT,009.5,f,002.85,M,,F*0C
$IIVHW,175.0,T,271,M,000.0,N,000.0,K*4C
$IIMTW,035.0,C*25
$IIHDM,271,M*38
$IIMTW,035.9,C*2C
$GPRMC,075153.00,A,5347.12622,N,00925.33986,E,0.036,300.20,160516,,,A*63
!AIVDO,1,1,,,B39MRQP000:j7;7dJqrscwrUsP06,0*20
$IIHDM,271,M*38
$IIMWV,021.5,R,012.5,N,A*3D
$IIDBT,009.4,f,002.82,M,,F*0A
$IIVHW,300.2,T,271,M,000.0,N,000.0,K*4E
$IIMTW,035.0,C*25
$IIHDM,271,M*38
$IIMTW,035.9,C*2C
!AIVDO,1,1,,,B39MRQP000:j7;7dJqp03ws5sP06,0*50
$IIHDM,271,M*38
$IIRSA,001,A,,V*66
$IIMWV,029.5,R,011.7,N,A*34
$IIDBT,009.4,f,002.82,M,,F*0A
$IIVHW,175.0,T,271,M,000.0,N,000.0,K*4C
$IIMTW,035.0,C*25
$IIMTW,035.9,C*2C
$IIHDM,271,M*38
$IIMWV,036.5,R,011.3,N,A*3E
$IIHDM,271,M*38
$IIRSA,001,A,,V*66
!AIVDO,1,1,,,B39MRQP000:j7;WdJql03wsUsP06,0*4C
$IIDBT,009.5,f,002.85,M,,F*0C
$IIVHW,175.0,T,271,M,000.0,N,000.0,K*4C
$IIMTW,035.0,C*25
$IIHDM,271,M*38
$IIMTW,035.5,C*20
$IIMWV,015.5,R,012.4,N,A*3B
$IIHDM,271,M*38
$IIRSA,001,A,,V*66
!AIVDO,1,1,,,B39MRQP000:j7;7dJql03wt5sP06,0*4B
$GPGBS,075156.00,2.5,1.5,4.0,,,,*46
$IIDBT,010.4,f,003.12,M,,F*0A
$IIVHW,175.0,T,271,M,000.0,N,000.0,K*4C
$IIMTW,035.0,C*25
$IIMTW,035.5,C*20
$IIHDM,271,M*38
$GPRMC,075157.00,A,5347.12606,N,00925.33974,E,0.023,303.01,160516,,,A*68
$IIMWV,037.5,R,015.3,N,A*3B
$IIHDM,271,M*38
$IIRSA,001,A,,V*66
!AIVDO,1,1,,,B39MRQP000:j7:WdJqjuKwtUsP06,0*71
$IIDBT,009.3,f,002.79,M,,F*09
$IIVHW,303.0,T,271,M,000.0,N,000.0,K*4F
$IIMTW,035.0,C*25
$IIMTW,035.5,C*20
$IIHDM,271,M*38
$IIMWV,026,R,014.0,N,A*22
$IIHDM,271,M*38
$IIRSA,001,A,,V*66
!AIVDO,1,1,,,B39MRQP000:j7;7dJqh03wu5sP06,0*4E
$IIDBT,009.3,f,002.79,M,,F*09
$IIVHW,175.0,T,271,M,000.0,N,000.0,K*4C
$IIMTW,035.0,C*25
$IIMTW,035.5,C*20
$IIHDM,271,M*38
$IIMWV,057,R,013.1,N,A*22
!AIVDO,1,1,,,B39MRQP000:j7<WdJqjuCwuUsP06,0*7E
$IIHDM,271,M*38
$IIRSA,001,A,,V*66
$IIDBT,009.3,f,002.79,M,,F*09
$IIVHW,175.0,T,271,M,000.0,N,000.0,K*4C
$IIMTW,035.0,C*25
$IIMTW,035.9,C*2C
$IIHDM,271,M*38
$GPRMC,075200.00,A,5347.12603,N,00925.34033,E,0.005,,160516,,,A*7A
$IIMWV,052.5,R,016.7,N,A*3F
$GPGBS,075200.00,2.5,1.5,4.0,,,,*46
$IIHDM,271,M*38
$IIRSA,001,A,,V*66
$AITXT,01,01,70,Leaving a DSC Receivable Window^2C Chan A*7E
!AIVDO,1,1,,,B39MRQP000:j7=WdJqh03wP5sP06,0*0D
$IIDBT,009.2,f,002.76,M,,F*07
$IIVHW,175.0,T,271,M,000.0,N,000.0,K*4C
$IIMTW,035.9,C*2C
$IIHDM,271,M*38
$IIMWV,034.5,R,016.2,N,A*3A
$IIHDM,271,M*38
$IIRSA,001,A,,V*66
!AIVDO,1,1,,,B39MRQP000:j7=WdJqd03wPUsP06,0*61
$IIDBT,009.5,f,002.85,M,,F*0C
$IIMTW,035.0,C*25
$IIVHW,175.0,T,271,M,000.0,N,000.0,K*4C
$IIMTW,035.9,C*2C
$IIHDM,271,M*38
$IIMWV,039.5,R,014.6,N,A*31
$IIHDM,271,M*38
$IIRSA,001,A,,V*66
$IIDBT,009.1,f,002.73,M,,F*01
$IIVHW,175.0,T,271,M,000.0,N,000.0,K*4C
$IIMTW,035.0,C*25
$IIMTW,035.9,C*2C
$IIMWV,038.5,R,014.6,N,A*30
$IIHDM,271,M*38
!AIVDO,1,1,,,B39MRQP000:j7>7dJqd03wQUsP06,0*03
$IIHDM,271,M*38
$IIRSA,001,A,,V*66
$IIDBT,008.8,f,002.64,M,,F*0F
$IIVHW,175.0,T,271,M,000.0,N,000.0,K*4C
$IIMTW,035.0,C*25
$IIMTW,035.9,C*2C
$GPRMC,075204.00,A,5347.12595,N,00925.34042,E,0.045,304.74,160516,,,A*6A
$IIMWV,036.5,R,014.8,N,A*30
$IIHDM,271,M*38
$GPGBS,075204.00,2.5,1.5,4.0,,,,*42
!AIVDO,1,1,,,B39MRQP000:j7>7dJqfvOwR5sP06,0*58
$IIHDM,271,M*38
$IIRSA,001,A,,V*66
$IIDBT,009.0,f,002.70,M,,F*03
$IIVHW,304.7,T,271,M,000.0,N,000.0,K*4F
$IIMTW,035.0,C*25
$IIMTW,035.9,C*2C
$IIMWV,018,R,016.7,N,A*2A
$IIHDM,271,M*38
$IIDBT,009.5,f,002.85,M,,F*0C
$IIVHW,175.0,T,271,M,000.0,N,000.0,K*4C
$IIMTW,035.0,C*25
$IIHDM,271,M*38
$IIRSA,001,A,,V*66
$IIMTW,035.9,C*2C
$IIMWV,014.5,R,015.7,N,A*3E
$IIHDM,271,M*38
$IIDBT,009.4,f,002.82,M,,F*0A
!AIVDO,1,1,,,B39MRQP000:j7>7dJqd03wS5sP06,0*61
$IIVHW,175.0,T,271,M,000.0,N,000.0,K*4C
$IIHDM,271,M*38
$IIRSA,001,A,,V*66
$IIMTW,035.0,C*25
$IIMTW,035.9,C*2C
$IIMWV,359.5,R,014.0,N,A*32
$IIHDM,271,M*38
!AIVDO,1,1,,,B39MRQP000:j7>7dJq`03wSUsP06,0*05
$GPRMC,075208.00,A,5347.12585,N,00925.34052,E,0.007,,160516,,,A*7A
$IIDBT,009.0,f,002.70,M,,F*03
$IIVHW,175.0,T,271,M,000.0,N,000.0,K*4C
$IIMTW,035.0,C*25
$IIMTW,035.5,C*20
$IIMWV,037,R,013.5,N,A*20
$IIHDM,271,M*38
$IIRSA,001,A,,V*66
$IIHDM,271,M*38
$GPGBS,075208.00,2.5,1.5,4.0,,,,*4E
!AIVDO,1,1,,,B39MRQP000:j7>WdJq`03wT5sP06,0*02
$IIDBT,009.5,f,002.85,M,,F*0C
$IIVHW,175.0,T,271,M,000.0,N,000.0,K*4C
$IIMTW,035.0,C*25
$IIMWV,048,R,018.2,N,A*24
$IIHDM,271,M*38
$IIRSA,001,A,,V*66
$IIMTW,035.5,C*20
$IIHDM,271,M*38
!AIVDO,1,1,,,B39MRQP000:j7?7dJq`03wTUsP06,0*03
$IIDBT,009.2,f,002.76,M,,F*07
$IIMWV,047,R,015.9,N,A*2D
$IIVHW,175.0,T,271,M,000.0,N,000.0,K*4C
$IIMTW,035.0,C*25
$IIHDM,271,M*38
$IIRSA,001,A,,V*66
$IIMTW,035.5,C*20
$IIHDM,271,M*38
$IIMWV,037.5,R,016.3,N,A*38
!AIVDO,1,1,,,B39MRQP000:j7?WdJqP03wU5sP06,0*32
$IIVHW,175.0,T,271,M,000.0,N,000.0,K*4C
$IIMTW,035.0,C*25
$IIMTW,035.5,C*20
$IIHDM,271,M*38
$IIRSA,001,A,,V*66
$IIHDM,271,M*38
$IIMWV,060.5,R,016.9,N,A*30
$IIDBT,009.0,f,002.70,M,,F*03
$IIVHW,175.0,T,271,M,000.0,N,000.0,K*4C
!AIVDO,1,1,,,B39MRQP000:j7?WdJqL03wUUsP06,0*4E
$IIMTW,035.0,C*25
$IIMTW,035.5,C*20
$IIHDM,271,M*38
$IIRSA,001,A,,V*66
$GPRMC,075212.00,A,5347.12549,N,00925.34088,E,0.014,,160516,,,A*74
$IIHDM,271,M*38
$GPGBS,075212.00,2.5,1.5,4.0,,,,*45
$IIMWV,056,R,017.1,N,A*27
$IIDBT,009.0,f,002.70,M,,F*03
$IIVHW,175.0,T,271,M,000.0,N,000.0,K*4C
$IIMTW,035.0,C*25
$IIMTW,035.5,C*20
!AIVDO,1,1,,,B39MRQP000:j7@7dJqH03wV5sP06,0*36
$IIHDM,271,M*38
$IIRSA,001,A,,V*66
!AIVDO,1,1,,B,H39MRQPP4U1DhD0000000000001,2*20
$IIHDM,271,M*38
$IIDBT,008.9,f,002.67,M,,F*0D
$IIVHW,175.0,T,271,M,000.0,N,000.0,K*4C
$IIMTW,035.0,C*25
$IIHDM,271,M*38
$IIRSA,001,A,,V*66
$IIMTW,035.5,C*20
$IIMWV,027,R,017.0,N,A*20
$IIHDM,271,M*38
$IIMWV,037.5,R,015.1,N,A*39
$IIDBT,009.2,f,002.76,M,,F*07
$IIVHW,175.0,T,271,M,000.0,N,000.0,K*4C
$IIMTW,035.0,C*25
$IIMTW,035.5,C*20
$IIHDM,271,M*38
$IIRSA,001,A,,V*66
!AIVDO,1,1,,,B39MRQP000:j7B7dJqJv;wWUsP06,0*19
!AIVDM,1,1,,B,139TUb8P00Pc5L0Nice>4?vN2@95,0*3D
$IIMWV,037.5,R,015.5,N,A*3D
$IIHDM,271,M*38
!AIVDO,1,1,,B,H39MRQTT4I138D047jmnl01@2620,0*59
$IIDBT,009.4,f,002.82,M,,F*0A
$IIVHW,175.0,T,271,M,000.0,N,000.0,K*4C
$IIMTW,035.0,C*25
$IIMTW,035.9,C*2C
$GPRMC,075216.00,A,5347.12540,N,00925.34138,E,0.030,307.57,160516,,,A*6D
$IIHDM,271,M*38
$IIRSA,001,A,,V*66
$IIMWV,017,R,015.6,N,A*27
$GPGBS,075216.00,2.2,1.4,3.4,,,,*44
$IIHDM,271,M*38
!AIVDO,1,1,,,B39MRQP000:j7BWdJqK0?w`5sP06,0*6D
$IIDBT,009.3,f,002.79,M,,F*09
$IIVHW,307.5,T,271,M,000.0,N,000.0,K*4E
$IIMTW,035.0,C*25
$IIMTW,035.9,C*2C
$IIHDM,271,M*38
$IIRSA,001,A,,V*66
$IIMWV,019,R,016.3,N,A*2F
!AIVDO,1,1,,,B39MRQP000:j7CWdJqFvGw`UsP06,0*3F
$IIHDM,271,M*38
$IIDBT,009.3,f,002.79,M,,F*09
$IIVHW,175.0,T,271,M,000.0,N,000.0,K*4C
$IIMTW,035.0,C*25
$IIMTW,035.9,C*2C
$IIHDM,271,M*38
$IIRSA,001,A,,V*66
$IIMWV,014.5,R,012.4,N,A*3A
$IIHDM,271,M*38
$IIDBT,009.3,f,002.79,M,,F*09
!AIVDO,1,1,,,B39MRQP000:j7D7dJqD03wa5sP06,0*09
$IIVHW,175.0,T,271,M,000.0,N,000.0,K*4C
$IIMTW,035.0,C*25
$IIMTW,035.9,C*2C
$IIHDM,271,M*38
$IIRSA,001,A,,V*66
$IIMWV,018,R,018.8,N,A*2B
!AIVDO,1,1,,,B39MRQP000:j7CWdJq@03waUsP06,0*0A
$GPRMC,075220.00,A,5347.12520,N,00925.34149,E,0.002,,160516,,,A*71
$IIDBT,009.5,f,002.85,M,,F*0C
$IIHDM,271,M*38
$IIVHW,175.0,T,271,M,000.0,N,000.0,K*4C
$IIMTW,035.0,C*25
$IIMTW,035.9,C*2C
$IIHDM,271,M*38
$IIRSA,001,A,,V*66
$IIMWV,008,R,021.5,N,A*2D
$GPGBS,075220.00,2.2,1.4,3.4,,,,*41
$IIDBT,009.5,f,002.85,M,,F*0C
$IIVHW,175.0,T,271,M,000.0,N,000.0,K*4C
$IIHDM,271,M*38
$IIMTW,035.0,C*25
$IIMTW,035.9,C*2C
!AIVDO,1,1,,,B39MRQP000:j7C7dJq@03wb5sP06,0*09
$IIHDM,271,M*38
$IIRSA,001,A,,V*66
$IIMWV,023,R,019.1,N,A*2B
$IIDBT,009.4,f,002.82,M,,F*0A
$IIVHW,175.0,T,271,M,000.0,N,000.0,K*4C
$IIMTW,035.0,C*25
$IIHDM,271,M*38
$IIMTW,035.9,C*2C
!AIVDO,1,1,,,B39MRQP000:j7C7dJq<03wbUsP06,0*15
$IIMWV,019,R,019.6,N,A*25
$IIHDM,271,M*38
$IIRSA,001,A,,V*66
$IIDBT,009.4,f,002.82,M,,F*0A
$IIVHW,175.0,T,271,M,000.0,N,000.0,K*4C
$IIMTW,035.0,C*25
$IIHDM,271,M*38
$IIMTW,035.9,C*2C
!AIVDO,1,1,,,B39MRQP000:j7BWdJq<03wc5sP06,0*15
$IIMWV,012,R,020.7,N,A*25
$IIHDM,271,M*38
$IIRSA,001,A,,V*66
$IIHDM,271,M*38
!AIVDO,1,1,,,B39MRQP000:j7B7dJq>wOwcUsP06,0*2C
$GPRMC,075224.00,A,5347.12515,N,00925.34111,E,0.005,,160516,,,A*79
$IIDBT,009.3,f,002.79,M,,F*09
$IIVHW,175.0,T,271,M,000.0,N,000.0,K*4C
$IIMTW,035.0,C*25
$IIMTW,035.9,C*2C
$IIMWV,019.5,R,019.4,N,A*3C
$IIHDM,271,M*38
$IIRSA,001,A,,V*66
$GPGBS,075224.00,2.2,1.4,3.4,,,,*45
$IIDBT,009.5,f,002.85,M,,F*0C
$IIVHW,175.0,T,271,M,000.0,N,000.0,K*4C
$IIMTW,035.0,C*25
$IIMTW,035.9,C*2C
$IIHDM,270,M*39
!AIVDO,1,1,,,B39MRQP000:j7A7dJq<03wdUsP06,0*11
$IIMWV,019,R,016.8,N,A*24
$IIHDM,270,M*39
$IIRSA,001,A,,V*66
!AIVDO,1,1,,,B39MRQP000:j7A7dJq<03we5sP06,0*70
$IIDBT,009.4,f,002.82,M,,F*0A
$IIVHW,175.0,T,270,M,000.0,N,000.0,K*4D
$IIMTW,035.0,C*25
$IIMTW,035.9,C*2C
$IIHDM,270,M*39
$IIMWV,018,R,017.4,N,A*28
$IIHDM,270,M*39
$IIRSA,001,A,,V*66
$IIDBT,009.4,f,002.82,M,,F*0A
$IIVHW,175.0,T,270,M,000.0,N,000.0,K*4D
$IIMTW,035.0,C*25
$IIMTW,035.9,C*2C
$IIHDM,271,M*38
$IIMWV,022.5,R,015.8,N,A*34
!AIVDO,1,1,,,B39MRQP000:j7@WdJq@03weUsP06,0*0D
$IIHDM,271,M*38
$IIRSA,001,A,,V*66
$IIDBT,009.3,f,002.79,M,,F*09
$IIVHW,175.0,T,271,M,000.0,N,000.0,K*4C
$IIMTW,035.0,C*25
$IIMTW,035.9,C*2C
$GPRMC,075228.00,A,5347.12525,N,00925.34089,E,0.011,,160516,,,A*73
$IIMWV,003,R,018.1,N,A*28
!AIVDO,1,1,,,B39MRQP000:j7@7dJq@03wf5sP06,0*0E
$IIHDM,271,M*38
$GPGBS,075228.00,2.2,1.4,3.4,,,,*49
$IIHDM,271,M*38
$IIRSA,001,A,,V*66
$IIDBT,009.3,f,002.79,M,,F*09
$IIVHW,175.0,T,271,M,000.0,N,000.0,K*4C
$IIMTW,035.0,C*25
$IIMTW,035.9,C*2C
$IIMWV,029,R,014.6,N,A*2B
$IIHDM,271,M*38
!AIVDO,1,1,,,B39MRQP000:j7?WdJqD03wfUsP06,0*75
$IIHDM,271,M*38
$IIRSA,001,A,,V*66
$IIDBT,009.6,f,002.88,M,,F*02
$IIVHW,175.0,T,271,M,000.0,N,000.0,K*4C
$IIMTW,035.0,C*25
$IIMTW,035.9,C*2C
$IIMWV,041,R,012.6,N,A*23
$IIHDM,271,M*38
!AIVDO,1,1,,,B39MRQP000:j7?7dJqD03wg5sP06,0*74
$IIHDM,271,M*38
$IIRSA,001,A,,V*66
$IIDBT,009.4,f,002.82,M,,F*0A
$IIVHW,175.0,T,271,M,000.0,N,000.0,K*4C
$IIMTW,035.0,C*25
$IIMTW,035.9,C*2C
$IIMWV,029,R,010.8,N,A*21
$IIHDM,271,M*38
!AIVDO,1,1,,,B39MRQP000:j7>WdJqH03wgUsP06,0*79
$IIHDM,271,M*38
$IIRSA,001,A,,V*66
$GPRMC,075232.00,A,5347.12550,N,00925.34048,E,0.013,,160516,,,A*75
$IIMTW,036.0,C*26
$IIVHW,175.0,T,271,M,000.0,N,000.0,K*4C
$IIMTW,036.3,C*25
$IIMWV,049.5,R,011.3,N,A*36
$IIHDM,271,M*38
!AIVDO,1,1,,,B39MRQP000:j7>7dJqL03wh5sP06,0*72
$GPGBS,075232.00,2.2,1.4,3.3,,,,*45
$IIHDM,271,M*38
$IIRSA,001,A,,V*66
$IIDBT,008.8,f,002.64,M,,F*0F
$IIMTW,036.0,C*26
$IIMTW,036.3,C*25
$IIMWV,037,R,010.6,N,A*20
!AIVDO,1,1,,,B39MRQP000:j7=7dJqO0SwhUsP06,0*72
$IIHDM,271,M*38
$IIDBT,009.0,f,002.70,M,,F*03
$IIHDM,271,M*38
$IIRSA,001,A,,V*66
$IIVHW,175.0,T,271,M,000.0,N,000.0,K*4C
$IIMTW,036.0,C*26
$IIMWV,023.5,R,014.1,N,A*3D
$IIMTW,036.3,C*25
$IIHDM,271,M*38
!AIVDO,1,1,,,B39MRQP000:j7<7dJqP03wi5sP06,0*6D
$IIDBT,009.5,f,002.85,M,,F*0C
$IIVHW,175.0,T,271,M,000.0,N,000.0,K*4C
$IIMTW,036.0,C*26
$IIMWV,018.5,R,012.7,N,A*35
$IIHDM,271,M*38
$IIRSA,001,A,,V*66
$IIMTW,036.3,C*25
!AIVDO,1,1,,,B39MRQP000:j7;7dJqP03wiUsP06,0*0A
$IIHDM,271,M*38
$IIDBT,009.0,f,002.70,M,,F*03
$IIVHW,175.0,T,271,M,000.0,N,000.0,K*4C
$IIMTW,036.0,C*26
$IIMWV,021,R,010.6,N,A*27
$IIHDM,271,M*38
$IIRSA,001,A,,V*66
$IIMTW,036.3,C*25
$GPRMC,075236.00,A,5347.12570,N,00925.33969,E,0.011,,160516,,,A*7C
!AIVDM,1,1,,B,139TUb8P00Pc5KvNice:;ww82<11,0*38
$IIHDM,271,M*38
!AIVDO,1,1,,,B39MRQP000:j7:7dJqT03wj5sP06,0*6C
$GPGBS,075236.00,2.2,1.4,3.4,,,,*46
$IIMWV,043,R,009.4,N,A*29
$IIDBT,009.0,f,002.70,M,,F*03
$IIVHW,175.0,T,271,M,000.0,N,000.0,K*4C
$IIMTW,036.0,C*26
$IIHDM,271,M*38
$IIRSA,001,A,,V*66
$IIMTW,036.3,C*25
$IIHDM,271,M*38
!AIVDO,1,1,,,B39MRQP000:j79WdJqT03wjUsP06,0*6F
$IIMWV,013,R,010.2,N,A*22
$IIDBT,009.0,f,002.70,M,,F*03
$IIMTW,036.0,C*26
$IIVHW,175.0,T,271,M,000.0,N,000.0,K*4C
$IIHDM,271,M*38
$IIMTW,036.3,C*25
$IIRSA,001,A,,V*66
$IIHDM,271,M*38
!AIVDO,1,1,,,B39MRQP000:j797dJqT03wk5sP06,0*6E
$IIMWV,003.5,R,014.2,N,A*3C
$IIDBT,008.9,f,002.67,M,,F*0D
$IIVHW,175.0,T,271,M,000.0,N,000.0,K*4C
$IIMTW,036.0,C*26
$IIMTW,036.3,C*25
$IIHDM,271,M*38
$IIRSA,001,A,,V*66
!AIVDO,1,1,,,B39MRQP000:j797dJqbvKwkUsP06,0*06
$IIHDM,271,M*38
$IIMWV,033,R,012.9,N,A*29
$IIDBT,009.4,f,002.82,M,,F*0A
$IIVHW,175.0,T,271,M,000.0,N,000.0,K*4C
$IIMTW,036.0,C*26
$IIMTW,036.7,C*21
$IIHDM,271,M*38
$IIRSA,001,A,,V*66
$GPRMC,075240.00,A,5347.12600,N,00925.33950,E,0.019,,160516,,,A*7B
$IIHDM,271,M*38
!AIVDO,1,1,,,B39MRQP000:j79WdJqh03wl5sP06,0*35
$GPGBS,075240.00,2.2,1.4,3.4,,,,*47
$IIMWV,040,R,010.8,N,A*2E
$IIDBT,009.5,f,002.85,M,,F*0C
$IIVHW,175.0,T,271,M,000.0,N,000.0,K*4C
$IIMTW,036.0,C*26
$IIMTW,036.7,C*21
$IIHDM,271,M*38
$IIRSA,001,A,,V*66
!AIVDO,1,1,,,B39MRQP000:j7:7dJqp03wlUsP06,0*2E
$IIMWV,049.5,R,011.0,N,A*35
$IIDBT,009.6,f,002.88,M,,F*02
$IIVHW,175.0,T,271,M,000.0,N,000.0,K*4C
$IIMTW,036.0,C*26
$IIMTW,036.7,C*21
$IIHDM,271,M*38
$IIRSA,001,A,,V*66
$IIMWV,034,R,009.9,N,A*24
!AIVDO,1,1,,,B39MRQP000:j79WdJqp03wm5sP06,0*2C
$IIHDM,271,M*38
$IIDBT,009.3,f,002.79,M,,F*09
$IIVHW,175.0,T,271,M,000.0,N,000.0,K*4C
$IIMTW,036.0,C*26
$IIMTW,036.7,C*21
$IIHDM,271,M*38
$IIRSA,001,A,,V*66
$IIMWV,021.5,R,010.3,N,A*39
!AIVDO,1,1,,,B39MRQP000:j79WdJqt03wmUsP06,0*48
$IIHDM,271,M*38
!AIVDO,1,1,,B,B39MRQP000:j79WdJqt03wmUkP06,0*12
$GPRMC,075244.00,A,5347.12634,N,00925.33956,E,0.036,307.57,160516,,,A*6B
$IIDBT,009.5,f,002.85,M,,F*0C
$IIVHW,175.0,T,271,M,000.0,N,000.0,K*4C
$IIHDM,271,M*38
$IIRSA,001,A,,V*66
$IIMTW,036.0,C*26
$IIMWV,053.5,R,009.4,N,A*33
$GPGBS,075244.00,2.2,1.4,3.4,,,,*43
$IIMTW,036.7,C*21
$IIHDM,271,M*38
!AIVDO,1,1,,,B39MRQP000:j79WdJqw0?wn5sP06,0*24
$IIDBT,009.3,f,002.79,M,,F*09
$IIVHW,175.0,T,271,M,000.0,N,000.0,K*4C
$IIMTW,036.0,C*26
$IIMTW,036.7,C*21
$IIHDM,271,M*38
$IIRSA,001,A,,V*66
$IIMWV,006,R,010.1,N,A*25
$IIHDM,271,M*38
!AIVDO,1,1,,,B39MRQP000:j79WdJqt03wnUsP06,0*4B
$IIDBT,009.3,f,002.79,M,,F*09
$IIVHW,175.0,T,271,M,000.0,N,000.0,K*4C
$IIMTW,036.0,C*26
$IIMTW,036.7,C*21
$IIHDM,271,M*38
$IIRSA,001,A,,V*66
$IIMWV,023.5,R,011.8,N,A*31
$IIHDM,271,M*38
$IIDBT,009.1,f,002.73,M,,F*01
!AIVDO,1,1,,,B39MRQP000:j79WdJqt03wo5sP06,0*2A
$IIVHW,175.0,T,271,M,000.0,N,000.0,K*4C
$IIMTW,036.0,C*26
$IIMTW,036.7,C*21
$IIHDM,271,M*38
$IIRSA,001,A,,V*66
$IIMWV,015,R,015.8,N,A*2B
!AIVDO,1,1,,,B39MRQP000:j797dJqt03woUsP06,0*2A
$IIDBT,009.1,f,002.73,M,,F*01
$IIHDM,271,M*38
$IIVHW,175.0,T,271,M,000.0,N,000.0,K*4C
$IIMTW,036.0,C*26
$IIMTW,036.7,C*21
$GPRMC,075248.00,A,5347.12637,N,00925.33947,E,0.010,,160516,,,A*78
$IIHDM,271,M*38
$IIRSA,001,A,,V*66
$GPGBS,075248.00,2.2,1.4,3.3,,,,*48
!AIVDO,1,1,,,B39MRQP000:j797dJqt03wp5sP06,0*55
$IIDBT,009.3,f,002.79,M,,F*09
$IIVHW,175.0,T,271,M,000.0,N,000.0,K*4C
$IIMTW,036.0,C*26
$IIHDM,271,M*38
$IIMTW,036.7,C*21
$IIMWV,033.5,R,013.9,N,A*33
$IIHDM,271,M*38
$IIRSA,001,A,,V*66
!AIVDO,1,1,,,B39MRQP000:j797dJqt03wpUsP06,0*35
$IIDBT,008.8,f,002.64,M,,F*0F
$IIVHW,175.0,T,271,M,005.5,N,010.1,K*4C
$IIMTW,036.0,C*26
$IIHDM,271,M*38
$IIMTW,036.7,C*21
$IIMWV,016,R,012.0,N,A*27
$IIHDM,271,M*38
$IIRSA,001,A,,V*66
$IIDBT,008.8,f,002.64,M,,F*0F
$IIVHW,175.0,T,271,M,000.0,N,000.0,K*4C
$IIMTW,036.0,C*26
$IIHDM,271,M*38
$IIMTW,036.7,C*21
!AIVDO,1,1,,,B39MRQP000:j797dJqvuowq5sP06,0*4F
$IIMWV,038.5,R,010.2,N,A*30
$IIHDM,270,M*39
$IIRSA,001,A,,V*66
$IIDBT,008.9,f,002.67,M,,F*0D
$IIVHW,175.0,T,270,M,000.0,N,000.0,K*4D
$IIMTW,036.0,C*26
$IIMTW,036.7,C*21
$IIHDM,270,M*39
!AIVDO,1,1,,,B39MRQP000:j797dJqt03wqUsP06,0*34
$GPRMC,075252.00,A,5347.12635,N,00925.33944,E,0.017,,160516,,,A*75
$IIMWV,040,R,010.2,N,A*24
$IIHDM,270,M*39
$IIRSA,001,A,,V*66
$GPGBS,075252.00,2.1,1.4,3.3,,,,*40
$IIDBT,009.7,f,002.91,M,,F*0B
$IIVHW,175.0,T,270,M,000.0,N,000.0,K*4D
$IIMTW,036.0,C*26
$IIMTW,036.7,C*21
$IIHDM,270,M*39
!AIVDO,1,1,,,B39MRQP000:j797dJqt03wr5sP06,0*57
$IIMWV,019.5,R,011.5,N,A*35
$IIHDM,270,M*39
$IIRSA,001,A,,V*66
!AIVDO,1,1,,,B39MRQP000:j78WdJqvu?wrUwP06,0*19
$IIDBT,009.9,f,002.97,M,,F*03
$IIVHW,175.0,T,270,M,000.0,N,000.0,K*4D
$IIMTW,036.0,C*26
$IIHDM,270,M*39
$IIMTW,036.7,C*21
$IIMWV,029.5,R,014.0,N,A*36
$IIHDM,270,M*39
$IIRSA,001,A,,V*66
$IIDBT,009.1,f,002.73,M,,F*01
$IIVHW,175.0,T,270,M,000.0,N,000.0,K*4D
$IIMTW,036.0,C*26
$IIMTW,036.7,C*21
!AIVDO,1,1,,,B39MRQP000:j78WdJqt03wsUwP06,0*53
$IIMWV,048,R,013.0,N,A*2D
$IIHDM,270,M*39
$IIHDM,270,M*39
$IIRSA,001,A,,V*66
$IIDBT,009.3,f,002.79,M,,F*09
$GPRMC,075256.00,A,5347.12636,N,00925.33949,E,0.011,,160516,,,A*79
!AIVDO,1,1,,,B39MRQP000:j797dJqt03wt5wP06,0*55
$IIVHW,175.0,T,270,M,000.0,N,000.0,K*4D
$IIMTW,036.0,C*26
$IIMTW,036.7,C*21
$IIMWV,037,R,012.2,N,A*26
$IIHDM,270,M*39
$IIHDM,270,M*39
$GPGBS,075256.00,2.2,1.4,3.3,,,,*47
$IIRSA,001,A,,V*66
$IIDBT,009.6,f,002.88,M,,F*02
$IIVHW,175.0,T,270,M,000.0,N,000.0,K*4D
$IIMTW,036.0,C*26
$IIMTW,036.7,C*21
$IIMWV,011.5,R,009.5,N,A*34
$IIHDM,270,M*39
!AIVDO,1,1,,,B39MRQP000:j7:7dJqvskwtUwP06,0*2F
$IIHDM,269,M*31
$IIRSA,001,A,,V*66
$IIDBT,009.4,f,002.82,M,,F*0A
$IIVHW,175.0,T,269,M,000.0,N,000.0,K*45
$IIMTW,036.0,C*26
$IIMTW,036.7,C*21
$IIMWV,015.5,R,008.8,N,A*3C
!AIVDO,1,1,,,B39MRQP000:j7:WdJqt03wu5wP06,0*37
$IIHDM,269,M*31
$IIHDM,269,M*31
$IIRSA,001,A,,V*66
$IIDBT,008.7,f,002.61,M,,F*05
$IIVHW,175.0,T,269,M,000.0,N,000.0,K*45
$IIMTW,036.0,C*26
$IIMWV,008,R,010.0,N,A*2A
$IIMTW,036.7,C*21
!AIVDO,1,1,,,B39MRQP000:j7;7dJqvuOwuUwP06,0*0D
$IIHDM,269,M*31
$IIHDM,269,M*31
$IIRSA,001,A,,V*66
$IIDBT,008.7,f,002.61,M,,F*05
$IIVHW,175.0,T,269,M,000.0,N,000.0,K*45
$IIMTW,036.0,C*26
$IIMWV,015.5,R,011.1,N,A*3D
$IIMTW,036.7,C*21
$GPRMC,075300.00,A,5347.12636,N,00925.33979,E,0.013,,160516,,,A*7A
$IIHDM,269,M*31
!AIVDO,1,1,,,B39MRQP000:j7:WdJqt03wP5wP06,0*12
$GPGBS,075300.00,2.1,1.4,3.3,,,,*46
$IIHDM,269,M*31
$IIRSA,001,A,,V*66
$IIDBT,008.8,f,002.64,M,,F*0F
$IIMWV,013,R,014.4,N,A*20
$IIVHW,175.0,T,269,M,000.0,N,000.0,K*45
$IIMTW,036.0,C*26
$IIMTW,036.7,C*21
$IIHDM,269,M*31
!AIVDO,1,1,,,B39MRQP000:j7:WdJr003wPUwP06,0*35
$IIVHW,175.0,T,269,M,000.0,N,000.0,K*45
$IIMTW,036.0,C*26
$IIHDM,269,M*31
$IIRSA,001,A,,V*66
$IIMTW,036.7,C*21
$IIMWV,008,R,010.0,N,A*2A
$IIHDM,269,M*31
$IIMWV,020,R,009.0,N,A*28
$IIDBT,009.8,f,002.94,M,,F*01
$IIVHW,175.0,T,269,M,000.0,N,000.0,K*45
$IIHDM,269,M*31
$IIRSA,046,A,,V*65
$IIMTW,036.0,C*26
$IIMTW,036.7,C*21
!AIVDO,1,1,,,B39MRQP000:j7;7dJr003wQUwP06,0*55
$IIHDM,270,M*39
$IIMWV,026,R,012.4,N,A*20
$IIDBT,008.6,f,002.58,M,,F*0E
$IIVHW,175.0,T,270,M,000.0,N,000.0,K*4D
$IIHDM,270,M*39
$IIRSA,001,A,,V*66
$IIMTW,036.0,C*26
$IIMTW,036.7,C*21
$GPRMC,075304.00,A,5347.12652,N,00925.33973,E,0.016,,160516,,,A*73
$IIHDM,270,M*39
!AIVDO,1,1,,,B39MRQP000:j7:WdJr403wR5wP06,0*53
$GPGBS,075304.00,2.1,1.4,3.3,,,,*42
$IIMWV,009.5,R,012.5,N,A*37
$IIDBT,008.7,f,002.61,M,,F*05
$IIVHW,175.0,T,270,M,000.0,N,000.0,K*4D
$IIMTW,036.0,C*26
$IIHDM,270,M*39
$IIRSA,001,A,,V*66
$IIMTW,036.7,C*21
!AIVDO,1,1,,,B39MRQP000:j7:7dJr403wRUsP06,0*57
$IIHDM,270,M*39
$IIMWV,018,R,013.7,N,A*2F
$IIDBT,008.7,f,002.61,M,,F*05
$IIVHW,175.0,T,270,M,000.0,N,000.0,K*4D
$IIMTW,036.0,C*26
$IIMTW,036.7,C*21
$IIHDM,270,M*39
$IIRSA,001,A,,V*66
!AIVDO,1,1,,,B39MRQP000:j79WdJr:tSwS5sP06,0*7F
$IIHDM,270,M*39
$IIMWV,032,R,013.7,N,A*27
$IIDBT,009.0,f,002.70,M,,F*03
$IIVHW,175.0,T,270,M,000.0,N,000.0,K*4D
$IIMTW,036.0,C*26
$IIMTW,036.7,C*21
$IIHDM,270,M*39
$IIRSA,001,A,,V*66
$IIHDM,270,M*39
!AIVDO,1,1,,,B39MRQP000:j797dJr803wSUsP06,0*59
$IIMWV,031,R,011.2,N,A*23
$IIDBT,008.7,f,002.61,M,,F*05
$GPRMC,075308.00,A,5347.12665,N,00925.33939,E,0.019,,160516,,,A*7A
$IIVHW,175.0,T,270,M,000.0,N,000.0,K*4D
$IIMTW,037.0,C*27
$IIMTW,037.1,C*26
$IIHDM,270,M*39
$IIRSA,001,A,,V*66
!AIVDO,1,1,,,B39MRQP000:j78WdJr803wT5sP06,0*5F
$IIHDM,270,M*39
$IIMWV,012.5,R,010.6,N,A*3C
$GPGBS,075308.00,2.1,1.4,3.3,,,,*4E
$IIDBT,009.6,f,002.88,M,,F*02
$IIVHW,175.0,T,270,M,000.0,N,000.0,K*4D
$IIMTW,037.0,C*27
$IIMTW,037.1,C*26
$IIHDM,270,M*39
$IIRSA,001,A,,V*66
!AIVDO,1,1,,,B39MRQP000:j787dJr<03wTUsP06,0*5B
$IIMWV,024.5,R,012.0,N,A*3D
$IIHDM,270,M*39
$IIDBT,009.6,f,002.88,M,,F*02
$IIVHW,175.0,T,270,M,000.0,N,000.0,K*4D
$IIMTW,037.0,C*27
$IIMTW,037.1,C*26
$IIHDM,270,M*39
$IIRSA,001,A,,V*66
$IIMWV,028,R,012.0,N,A*2A
!AIVDO,1,1,,,B39MRQP000:j787dJr>ucwU5sP06,0*2D
$IIHDM,270,M*39
$IIDBT,009.6,f,002.88,M,,F*02
$IIVHW,175.0,T,270,M,000.0,N,000.0,K*4D
$IIMTW,037.0,C*27
$IIMTW,037.1,C*26
$IIHDM,270,M*39
$IIRSA,001,A,,V*66
!AIVDO,1,1,,,B39MRQP000:j77WdJr<03wUUsP06,0*35
$GPGBS,075311.00,2.1,1.4,3.3,,,,*46
$IIMWV,063.5,R,011.4,N,A*39
$IIHDM,270,M*39
$IIDBT,008.9,f,002.67,M,,F*0D
$IIVHW,175.0,T,270,M,000.0,N,000.0,K*4D
$IIMTW,037.0,C*27
$IIMTW,037.1,C*26
$GPRMC,075312.00,A,5347.12684,N,00925.33941,E,0.016,,160516,,,A*7E
$IIHDM,270,M*39
$IIRSA,001,A,,V*66
$IIMWV,033.5,R,011.8,N,A*30
!AIVDO,1,1,,,B39MRQP000:j797dJr@03wV5sP06,0*44
$IIHDM,270,M*39
$IIDBT,008.9,f,002.67,M,,F*0D
$IIVHW,175.0,T,270,M,000.0,N,000.0,K*4D
$IIMTW,037.0,C*27
$IIMTW,037.1,C*26
$IIHDM,270,M*39
$IIRSA,001,A,,V*66
$IIMWV,054,R,010.9,N,A*2A
!AIVDO,1,1,,,B39MRQP000:j797dJr@03wVUsP06,0*24
$IIHDM,270,M*39
$IIVHW,175.0,T,270,M,000.0,N,000.0,K*4D
$IIMTW,037.0,C*27
$IIHDM,270,M*39
$IIRSA,001,A,,V*66
$IIMTW,037.1,C*26
$IIMWV,010,R,012.1,N,A*20
!AIVDO,1,1,,,B39MRQP000:j7:7dJr@03wW5sP06,0*46
$IIHDM,270,M*39
$IIDBT,009.1,f,002.73,M,,F*01
$IIVHW,175.0,T,270,M,000.0,N,000.0,K*4D
$IIMTW,037.0,C*27
$IIMTW,037.1,C*26
$IIMWV,028,R,012.5,N,A*2F
!AIVDM,1,1,,B,139TUb8P00Pc5KvNice:8wvN2<10,0*4D
$GPGBS,075315.00,2.1,1.4,3.3,,,,*42
!AIVDO,1,1,,,B39MRQP000:j7<WdJr@03wWUsP06,0*40
$IIHDM,270,M*39
$IIRSA,001,A,,V*66
$IIHDM,269,M*31
$IIDBT,008.7,f,002.61,M,,F*05
$IIVHW,175.0,T,269,M,000.0,N,000.0,K*45
$IIMTW,037.0,C*27
$IIMTW,037.1,C*26
$GPRMC,075316.00,A,5347.12687,N,00925.34050,E,0.029,300.96,160516,,,A*69
$IIMWV,036,R,013.8,N,A*2C
$IIHDM,269,M*31
$IIRSA,001,A,,V*66
!AIVDO,1,1,,,B39MRQP000:j7>WdJrBt7w`5sP06,0*57
$IIDBT,009.4,f,002.82,M,,F*0A
$IIVHW,300.9,T,269,M,000.0,N,000.0,K*4C
$IIHDM,269,M*31
$IIMTW,037.0,C*27
$IIMTW,037.1,C*26
$IIMWV,048.5,R,012.8,N,A*3F
$IIHDM,269,M*31
$IIRSA,001,A,,V*66
!AIVDO,1,1,,,B39MRQP000:j7@7dJrBr3w`UsP06,0*2B
$IIDBT,009.0,f,002.70,M,,F*03
$IIVHW,175.0,T,269,M,000.0,N,000.0,K*45
$IIMTW,037.0,C*27
$IIHDM,269,M*31
$IIMTW,037.1,C*26
$IIMWV,033,R,014.0,N,A*26
$IIHDM,269,M*31
$IIRSA,001,A,,V*66
!AIVDO,1,1,,,B39MRQP000:j7@WdJrFocwa5sP06,0*63
$IIDBT,009.6,f,002.88,M,,F*02
$IIVHW,175.0,T,269,M,000.0,N,000.0,K*45
$IIMTW,037.0,C*27
$IIHDM,269,M*31
$IIMTW,037.1,C*26
$IIMWV,025,R,014.3,N,A*22
$IIHDM,269,M*31
$IIRSA,001,A,,V*66
$GPGBS,075319.00,2.1,1.4,3.3,,,,*4E
!AIVDO,1,1,,,B39MRQP000:j7AWdJrFnKwaUsP06,0*2B
$IIDBT,008.8,f,002.64,M,,F*0F
$GPRMC,075320.00,A,5347.12700,N,00925.34111,E,0.043,290.47,160516,,,A*6E
$IIVHW,175.0,T,269,M,459.2,N,012.5,K*49
$IIMTW,037.0,C*27
$IIHDM,269,M*31
$IIMWV,040.5,R,014.8,N,A*31
$IIMTW,037.1,C*26
$IIHDM,269,M*31
$IIRSA,001,A,,V*66
!AIVDO,1,1,,,B39MRQP000:j7AWdJrJmSwb5sP06,0*5F
$IIDBT,009.2,f,002.76,M,,F*07
$IIVHW,290.4,T,269,M,000.0,N,000.0,K*49
$IIMTW,037.0,C*27
$IIMTW,037.1,C*26
$IIHDM,268,M*30
$IIMWV,025,R,014.2,N,A*23
$IIHDM,268,M*30
$IIRSA,001,A,,V*66
!AIVDO,1,1,,,B39MRQP000:j7AWdJrFl;wbUwP06,0*5E
$IIDBT,009.6,f,002.88,M,,F*02
$IIVHW,175.0,T,268,M,000.0,N,000.0,K*44
$IIMTW,037.0,C*27
$IIMTW,037.1,C*26
$IIHDM,268,M*30
$IIMWV,018.5,R,013.0,N,A*33
$IIHDM,268,M*30
$IIRSA,001,A,,V*66
$IIDBT,009.1,f,002.73,M,,F*01
$IIVHW,175.0,T,268,M,000.0,N,000.0,K*44
!AIVDO,1,1,,,B39MRQP000:j7AWdJrFk3wc5wP06,0*30
$IIMTW,037.0,C*27
$IIMTW,037.1,C*26
$IIMWV,024,R,011.8,N,A*2D
$IIHDM,268,M*30
$IIHDM,268,M*30
$IIRSA,001,A,,V*66
$GPGBS,075323.00,2.1,1.4,3.3,,,,*47
!AIVDO,1,1,,,B39MRQP000:j7B7dJrBjKwcUwP06,0*4E
$IIDBT,009.0,f,002.70,M,,F*03
$IIMWV,021,R,012.6,N,A*25
$GPRMC,075324.00,A,5347.12677,N,00925.34137,E,0.029,284.25,160516,,,A*62
$IIVHW,175.0,T,268,M,000.0,N,000.0,K*44
$IIMTW,036.0,C*26
$IIHDM,268,M*30
$IIMTW,036.7,C*21
$IIHDM,268,M*30
$IIRSA,001,A,,V*66
!AIVDO,1,1,,,B39MRQP000:j7BWdJr>icwd5wP06,0*1E
$IIDBT,009.0,f,002.70,M,,F*03
$IIVHW,284.2,T,268,M,000.0,N,000.0,K*4B
$IIMTW,036.0,C*26
$IIMWV,021,R,011.3,N,A*23
$IIMTW,036.7,C*21
$IIHDM,267,M*3F
$IIHDM,267,M*3F
$IIRSA,001,A,,V*66
!AIVDM,1,1,,A,139TUb8P00Pc5KvNice>4?vj2H?;,0*5B
!AIVDO,1,1,,,B39MRQP000:j7C7dJr:i7wdUwP06,0*4F
$IIDBT,009.5,f,002.85,M,,F*0C
$IIMWV,006.5,R,013.2,N,A*3E
$IIMTW,036.0,C*26
$IIVHW,175.0,T,267,M,000.0,N,000.0,K*4B
$IIMTW,036.7,C*21
$IIHDM,267,M*3F
$IIHDM,267,M*3F
$IIRSA,001,A,,V*66
$IIDBT,009.3,f,002.79,M,,F*09
$IIMWV,044.5,R,010.7,N,A*3E
!AIVDO,1,1,,,B39MRQP000:j7C7dJr403we5wP06,0*7D
$IIVHW,175.0,T,267,M,000.0,N,000.0,K*4B
$IIMTW,036.0,C*26
$IIMTW,036.7,C*21
$IIHDM,267,M*3F
$GPGBS,075327.00,2.1,1.4,3.3,,,,*43
$IIHDM,267,M*3F
$IIRSA,001,A,,V*66
$IIMWV,004.5,R,012.7,N,A*38
$IIDBT,009.2,f,002.76,M,,F*07
$IIVHW,175.0,T,267,M,000.0,N,000.0,K*4B
$IIMTW,036.0,C*26
$IIMTW,036.7,C*21
!AIVDO,1,1,,,B39MRQP000:j7CWdJr2l;weUwP06,0*2F
$GPRMC,075328.00,A,5347.12628,N,00925.34147,E,0.050,293.27,160516,,,A*69
$IIHDM,267,M*3F
!AIVDO,1,1,,,B39MRQP000:j7C7dJqroCwf5wP06,0*14
$IIMWV,036,R,014.2,N,A*21
$IIHDM,267,M*3F
$IIRSA,001,A,,V*66
$IIDBT,009.5,f,002.85,M,,F*0C
$IIVHW,293.2,T,267,M,000.0,N,000.0,K*42
$IIMTW,036.0,C*26
$IIMTW,036.7,C*21
$IIHDM,266,M*3E
$IIMWV,030.5,R,013.7,N,A*3E
$IIHDM,266,M*3E
$IIRSA,001,A,,V*66
$IIDBT,009.1,f,002.73,M,,F*01
$IIVHW,175.0,T,266,M,000.0,N,000.0,K*4A
$IIMTW,036.0,C*26
$IIMTW,036.7,C*21
!AIVDO,1,1,,,B39MRQP000:j7C7dJqnrCwfUwP06,0*75
$IIHDM,266,M*3E
$IIMWV,025.5,R,015.6,N,A*3D
$IIDBT,009.9,f,002.97,M,,F*03
$IIVHW,175.0,T,266,M,000.0,N,000.0,K*4A
$IIHDM,266,M*3E
$IIRSA,001,A,,V*66
$IIMTW,036.0,C*26
$IIMTW,036.7,C*21
!AIVDO,1,1,,,B39MRQP00@:j7BWdJqfuCwg5wP06,0*0A
$IIHDM,266,M*3E
$IIMWV,028.5,R,017.3,N,A*37
$GPGBS,075331.00,2.1,1.4,3.2,,,,*45
$IIDBT,009.5,f,002.85,M,,F*0C
$IIHDM,266,M*3E
!AIVDO,1,1,,,B39MRQP000:j7B7dJqc0?wgUwP06,0*46
$GPRMC,075332.00,A,5347.12584,N,00925.34110,E,0.120,312.05,160516,,,A*6B
$IIRSA,001,A,,V*66
$IIMTW,036.0,C*26
$IIMTW,036.7,C*21
$IIVHW,175.0,T,266,M,005.7,N,010.5,K*4C
$IIHDM,266,M*3E
$IIMWV,012.5,R,015.9,N,A*36
$IIDBT,009.4,f,002.82,M,,F*0A
$IIVHW,312.0,T,266,M,000.0,N,000.0,K*49
$IIMTW,036.0,C*26
$IIHDM,266,M*3E
$IIRSA,001,A,,V*66
$IIMTW,036.7,C*21
!AIVDO,1,1,,,B39MRQP00@:j7A7dJqc5wwhUwP06,0*77
$IIMWV,024.5,R,016.0,N,A*39
$IIHDM,265,M*3D
$IIDBT,009.8,f,002.94,M,,F*01
$IIVHW,175.0,T,265,M,000.0,N,000.0,K*49
$IIHDM,265,M*3D
$IIRSA,001,A,,V*66
$IIMTW,036.0,C*26
!AIVDO,1,1,,,B39MRQP00@:j7A7dJqg8cwi5wP06,0*0B
$IIMTW,036.7,C*21
$IIHDM,265,M*3D
$IIMWV,026.5,R,013.1,N,A*3F
$IIDBT,009.8,f,002.94,M,,F*01
$IIVHW,175.0,T,265,M,000.0,N,000.0,K*49
$IIMTW,036.0,C*26
$IIMTW,036.7,C*21
$IIHDM,265,M*3D
$IIRSA,001,A,,V*66
!AIVDO,1,1,,,B39MRQP00@:j7AWdJqg>7wiUwP06,0*59
$GPGBS,075335.00,2.1,1.4,3.2,,,,*41
$IIHDM,265,M*3D
$IIMWV,016,R,013.7,N,A*21
$IIDBT,009.7,f,002.91,M,,F*0B
$IIVHW,175.0,T,265,M,000.0,N,000.0,K*49
$IIMTW,036.0,C*26
$IIMTW,036.7,C*21
$IIHDM,264,M*3C
$IIRSA,001,A,,V*66
$GPRMC,075336.00,A,5347.12592,N,00925.34130,E,0.213,338.25,160516,,,A*63
!AIVDO,1,1,,,B39MRQP00P:j7BWdJqgCKwj5wP06,0*28
!AIVDM,1,1,,B,139TUb8P00Pc5KvNice>4?w828EC,0*79
$IIMWV,029.5,R,016.7,N,A*33
$IIHDM,264,M*3C
$IIDBT,009.7,f,002.91,M,,F*0B
$IIVHW,338.2,T,264,M,000.0,N,000.0,K*41
$IIMTW,036.0,C*26
$IIMTW,036.7,C*21
$IIHDM,264,M*3C
$IIRSA,001,A,,V*66
!AIVDO,1,1,,,B39MRQP00@:j7C7dJqgEwwjUwP06,0*03
$IIMWV,047,R,016.2,N,A*25
$IIHDM,263,M*3B
$IIDBT,009.4,f,002.82,M,,F*0A
$IIMTW,036.0,C*26
$IIVHW,150.0,T,263,M,000.0,N,000.0,K*48
!AIVDO,1,1,,,B39MRQP00@:j7CWdJqkHgwk5wP06,0*13
$IIMTW,036.7,C*21
$IIHDM,263,M*3B
$IIRSA,001,A,,V*66
$IIMWV,064,R,012.4,N,A*26
$IIHDM,262,M*3A
$IIDBT,010.2,f,003.6,M,,F*39
$IIVHW,137.0,T,262,M,000.0,N,000.0,K*48
$IIMTW,036.0,C*26
$IIMTW,036.7,C*21
$IIHDM,262,M*3A
$IIRSA,001,A,,V*66
!AIVDO,1,1,,,B39MRQP00@:j7CWdJqoKSwkUwP06,0*40
$GPGBS,075339.00,2.1,1.4,3.2,,,,*4D
$IIMWV,040,R,010.6,N,A*20
$IIHDM,262,M*3A
$IIDBT,010.2,f,003.6,M,,F*39
$IIVHW,137.0,T,262,M,000.0,N,000.0,K*48
$IIMTW,036.0,C*26
$IIMTW,036.7,C*21
$IIHDM,261,M*39
$IIRSA,001,A,,V*66
$GPRMC,075340.00,A,5347.12618,N,00925.34172,E,0.181,356.39,160516,,,A*68
$IIMWV,062,R,011.5,N,A*22
!AIVDO,1,1,,,B39MRQP00@:j7DWdJqoNgwl5wP06,0*11
$IIHDM,261,M*39
$IIDBT,009.9,f,002.97,M,,F*03
$IIVHW,356.3,T,261,M,000.0,N,000.0,K*4D
$IIMTW,036.0,C*26
$IIMTW,036.7,C*21
!AIVDO,1,1,,,B39MRQP00@:j7E7dJql0wwlUwP06,0*7D
$IIMWV,066,R,010.0,N,A*22
$IIHDM,261,M*39
$IIRSA,001,A,,V*66
$IIHDM,261,M*39
$IIDBT,009.9,f,002.97,M,,F*03
$IIVHW,137.0,T,261,M,000.0,N,000.0,K*4B
$IIMTW,036.0,C*26
$IIMTW,036.7,C*21
$IIHDM,260,M*38
$IIRSA,001,A,,V*66
$IIMWV,040,R,011.8,N,A*2F
!AIVDO,1,1,,,B39MRQP00@:j7F7dJql4?wm5wP06,0*53
$IIHDM,260,M*38
$IIDBT,009.6,f,002.88,M,,F*02
$IIVHW,139.0,T,260,M,000.0,N,000.0,K*44
$IIMTW,036.0,C*26
$IIMTW,036.7,C*21
$IIMWV,053,R,011.4,N,A*21
$IIHDM,259,M*32
$IIRSA,001,A,,V*66
!AIVDO,1,1,,,B39MRQP00P:j7EWdJqoN?wmUwP06,0*39
$GPGBS,075343.00,2.1,1.4,3.2,,,,*40
$IIDBT,009.6,f,002.88,M,,F*02
$IIMWV,037,R,014.4,N,A*26
$GPRMC,075344.00,A,5347.12609,N,00925.34192,E,0.265,345.39,160516,,,A*69
$IIHDM,259,M*32
$IIVHW,151.0,T,259,M,000.0,N,000.0,K*40
$IIMTW,036.0,C*26
$IIHDM,258,M*33
$IIRSA,001,A,,V*66
!AIVDO,1,1,,,B39MRQP00P:j7EWdJqkGown5sP06,0*03
$IIHDM,258,M*33
$IIDBT,009.5,f,002.85,M,,F*0C
$IIVHW,169.0,T,258,M,000.0,N,000.0,K*4A
$IIMTW,036.0,C*26
$IIMTW,036.7,C*21
$IIMWV,044,R,012.6,N,A*26
!AIVDO,1,1,,,B39MRQP00h:j7DWdJqkB?wnUsP06,0*0F
$IIHDM,258,M*33
$IIRSA,001,A,,V*66
$IIDBT,009.4,f,002.82,M,,F*0A
$IIHDM,257,M*3C
$IIVHW,169.0,T,257,M,000.0,N,000.0,K*45
$IIMTW,036.0,C*26
$IIMTW,036.7,C*21
$IIMWV,044.5,R,012.0,N,A*3B
$IIHDM,257,M*3C
$IIRSA,003,A,,V*64
!AIVDM,1,1,,A,139TUb8P00Pc5KpNice>4?wL2@K<,0*01
!AIVDO,1,1,,,B39MRQP010:j7D7dJqg=;wo5sP06,0*20
$IIDBT,009.8,f,002.94,M,,F*01
$IIVHW,172.0,T,257,M,000.0,N,000.0,K*4F
$IIMTW,036.0,C*26
$IIHDM,257,M*3C
$IIMTW,036.7,C*21
$IIMWV,016.5,R,010.3,N,A*3D
!AIVDM,1,1,,A,H39QKKPE=A8Dhh4000000000003,2*15
!AIVDO,1,1,,,B39MRQP010:j7C7dJqg8cwoUsP06,0*1A
$IIHDM,256,M*3D
$IIRSA,006,A,,V*61
$GPGBS,075347.00,2.1,1.4,3.2,,,,*44
$IIDBT,009.7,f,002.91,M,,F*0B
$IIVHW,185.0,T,256,M,000.0,N,000.0,K*46
$IIMTW,037.0,C*27
$IIHDM,256,M*3D
$IIMTW,037.1,C*26
$IIMWV,026,R,011.1,N,A*26
$GPRMC,075348.00,A,5347.12582,N,00925.34111,E,0.532,314.46,160516,,,A*67
$IIHDM,256,M*3D
$IIRSA,008,A,,V*6F
!AIVDO,1,1,,,B39MRQP01@:j7AWdJqc4Swp5sP06,0*4F
$IIDBT,009.6,f,002.88,M,,F*02
$IIVHW,188.0,T,256,M,000.0,N,000.0,K*4B
$IIMTW,037.0,C*27
$IIMTW,037.1,C*26
$IIHDM,255,M*3E
$IIMWV,027.5,R,011.7,N,A*3A
$IIHDM,255,M*3E
$IIRSA,008,A,,V*6F
!AIVDO,1,1,,,B39MRQP01P:j7@7dJqW0kwpUsP06,0*56
$IIDBT,009.8,f,002.94,M,,F*01
$IIVHW,191.0,T,255,M,000.0,N,000.0,K*40
$IIMTW,037.0,C*27
$IIHDM,255,M*3E
$IIMTW,037.1,C*26
$IIMWV,022.5,R,012.7,N,A*3C
$IIHDM,254,M*3F
$IIRSA,008,A,,V*6F
!AIVDO,1,1,,,B39MRQP01P:j7>7dJqRuKwq5sP06,0*29
$IIDBT,009.4,f,002.82,M,,F*0A
$IIVHW,205.0,T,254,M,000.0,N,000.0,K*4F
$IIMTW,037.0,C*27
$IIMWV,022,R,012.6,N,A*26
$IIMTW,037.1,C*26
$IIHDM,254,M*3F
!AIVDO,1,1,,,B39MRQP01h:j7<WdJqJr?wqUsP06,0*78
$IIHDM,254,M*3F
$IIRSA,008,A,,V*6F
$GPGBS,075351.00,2.1,1.4,3.2,,,,*43
$IIDBT,009.4,f,002.82,M,,F*0A
$IIVHW,206.0,T,254,M,000.0,N,000.0,K*4C
$IIMTW,037.0,C*27
$IIMWV,027.5,R,011.7,N,A*3A
$IIMTW,037.1,C*26
$IIHDM,254,M*3F
$GPRMC,075352.00,A,5347.12537,N,00925.33970,E,0.804,293.50,160516,,,A*6B
$IIHDM,253,M*38
$IIRSA,006,A,,V*61
!AIVDO,1,1,,,B39MRQP020:j7:WdJqFoOwr5sP06,0*27
$IIMWV,075.5,R,010.4,N,A*3F
$IIDBT,010.4,f,003.12,M,,F*0A
$IIVHW,293.5,T,253,M,655.3,N,032.6,K*40
$IIMTW,037.0,C*27
$IIMTW,037.1,C*26
$IIHDM,253,M*38
$IIHDM,253,M*38
$IIRSA,004,A,,V*63
!AIVDO,1,1,,,B39MRQP020:j787dJqBlkwrUsP06,0*06
$IIDBT,009.7,f,002.91,M,,F*0B
$IIMWV,073.5,R,010.3,N,A*3E
$IIHDM,253,M*38
$IIVHW,210.0,T,253,M,000.2,N,000.3,K*4D
$IIMTW,037.0,C*27
$IIMTW,037.1,C*26
$IIHDM,252,M*39
$IIRSA,004,A,,V*63
!AIVDO,1,1,,,B39MRQP02@:j767dJq:jOws5wP06,0*47
$IIMWV,067.5,R,011.5,N,A*3C
$IIDBT,009.7,f,002.91,M,,F*0B
$IIVHW,212.0,T,252,M,000.4,N,000.7,K*4C
$IIMTW,037.0,C*27
$IIMTW,037.1,C*26
$IIHDM,252,M*39
!AIVDM,1,1,,B,139TUb8P00Pc5KrNicfaqgwf24sD,0*5F
$GPGBS,075355.00,2.1,1.4,3.2,,,,*47
!AIVDO,1,1,,,B39MRQP02P:j747dJq2h?wsUsP06,0*4B
$IIHDM,252,M*39
$IIRSA,004,A,,V*63
$IIMWV,071.5,R,011.9,N,A*37
$IIDBT,010.2,f,003.6,M,,F*39
$IIMTW,036.0,C*26
$GPRMC,075356.00,A,5347.12471,N,00925.33801,E,1.088,278.77,160516,,,A*66
$IIVHW,214.0,T,252,M,000.5,N,000.9,K*45
$IIMTW,036.3,C*25
$IIHDM,252,M*39
$IIMWV,029,R,011.9,N,A*21
!AIVDO,1,1,,,B39MRQP02P:j727dJpvf?wt5sP06,0*61
$IIDBT,010.3,f,003.9,M,,F*37
$IIVHW,278.7,T,252,M,000.6,N,001.1,K*42
$IIMTW,036.0,C*26
$IIMTW,036.3,C*25
$IIHDM,252,M*39
$IIMWV,061.5,R,011.9,N,A*36
$IIHDM,252,M*39
$IIRSA,004,A,,V*63
!AIVDO,1,1,,,B39MRQP02h:j6wWdJpndGwtUsP06,0*7F
$IIDBT,009.9,f,002.97,M,,F*03
$IIVHW,218.0,T,252,M,000.7,N,001.2,K*41
$IIMTW,036.0,C*26
$IIMTW,036.3,C*25
$IIHDM,251,M*3A
$IIMWV,035,R,011.1,N,A*24
!AIVDM,1,1,,A,H39QKKTTC=D4E2t44H30001P3310,0*13
$IIHDM,251,M*3A
$IIRSA,004,A,,V*63
!AIVDO,1,1,,,B39MRQP030:j6u7dJpbbcwu5sP06,0*0B
$IIDBT,009.9,f,002.97,M,,F*03
$IIVHW,219.0,T,251,M,000.7,N,001.2,K*43
$IIMTW,036.0,C*26
$IIMTW,036.3,C*25
$IIHDM,251,M*3A
$IIMWV,016.5,R,015.2,N,A*39
$GPGBS,075359.00,2.1,1.4,3.2,,,,*4B
!AIVDO,1,1,,,B39MRQP030:j6rWdJpRa3wuUsP06,0*6F
$IIHDM,251,M*3A
$IIRSA,004,A,,V*63
$IIDBT,009.3,f,002.79,M,,F*09
$IIVHW,221.0,T,251,M,000.9,N,001.6,K*42
$IIMTW,037.0,C*27
$IIMTW,037.1,C*26
$GPRMC,075400.00,A,5347.12373,N,00925.33596,E,1.320,268.19,160516,,,A*6C
$IIHDM,251,M*3A
$IIMWV,025,R,015.0,N,A*20
!AIVDO,1,1,,,B39MRQP03@:j6oWdJpFWWwP5sP06,0*01
$IIHDM,251,M*3A
$IIRSA,004,A,,V*63
$IIDBT,010.4,f,003.12,M,,F*0A
$IIVHW,268.1,T,251,M,001.0,N,001.8,K*48
$IIMTW,037.0,C*27
$IIMTW,037.1,C*26
$IIHDM,252,M*39
$IIMWV,019,R,012.9,N,A*21
!AIVDO,1,1,,,B39MRQP03@:j6oWdJpBVGwPUwP06,0*70
$IIHDM,252,M*39
$IIRSA,004,A,,V*63
$IIDBT,010.5,f,003.15,M,,F*0C
$IIVHW,223.0,T,252,M,001.0,N,001.8,K*45
$IIMTW,037.0,C*27
$IIMTW,037.1,C*26
$IIHDM,252,M*39
$IIMWV,009.5,R,013.7,N,A*34
$IIDBT,009.1,f,002.73,M,,F*01
$IIVHW,225.0,T,252,M,000.9,N,001.6,K*45
$IIMTW,037.0,C*27
!AIVDO,1,1,,,B39MRQP03P:j6n7dJp6U7wQ5wP06,0*67
$IIHDM,252,M*39
$IIRSA,004,A,,V*63
$IIMTW,037.1,C*26
$IIHDM,252,M*39
$IIMWV,018.5,R,014.2,N,A*36
$GPGBS,075403.00,2.1,1.4,3.2,,,,*43
!AIVDO,1,1,,,B39MRQP03P:j6l7dJp2T3wQUwP06,0*04
$IIDBT,010.3,f,003.9,M,,F*37
$IIVHW,226.0,T,252,M,001.0,N,001.8,K*40
$IIMTW,037.0,C*27
$IIHDM,252,M*39
$IIRSA,004,A,,V*63
$GPRMC,075404.00,A,5347.12301,N,00925.33470,E,1.538,260.81,160516,,,A*62
$IIMTW,037.1,C*26
$IIMWV,051.5,R,015.3,N,A*3B
$IIHDM,252,M*39
!AIVDM,1,1,,A,139TUb8P00Pc5KrNicgf4?v82@2t,0*1D
!AIVDO,1,1,,,B39MRQP03h:j6iWdJorS3wR5wP06,0*62
$IIDBT,010.3,f,003.9,M,,F*37
$IIVHW,260.8,T,252,M,001.1,N,002.0,K*40
$IIMTW,037.0,C*27
$IIHDM,252,M*39
$IIRSA,004,A,,V*63
$IIMTW,037.1,C*26
$IIMWV,042,R,013.0,N,A*27
$IIHDM,252,M*39
!AIVDO,1,1,,,B39MRQP03h:j6fWdJofR;wRUsP06,0*14
$IIDBT,010.1,f,003.3,M,,F*3F
$IIVHW,228.0,T,252,M,001.1,N,002.0,K*44
$IIMTW,037.0,C*27
$IIMTW,037.1,C*26
$IIHDM,252,M*39
$IIRSA,004,A,,V*63
$IIMWV,030.5,R,012.3,N,A*3B
$IIHDM,252,M*39
$IIDBT,010.0,f,003.0,M,,F*3D
$IIVHW,229.0,T,252,M,001.2,N,002.2,K*44
$IIMTW,037.0,C*27
!AIVDO,1,1,,,B39MRQP040:j6c7dJoRQGwS5sP06,0*04
$IIMTW,037.1,C*26
$IIHDM,252,M*39
$IIRSA,005,A,,V*62
$IIMWV,040.5,R,011.9,N,A*35
$IIHDM,253,M*38
$GPGBS,075407.00,2.1,1.4,3.3,,,,*46
!AIVDO,1,1,,,B39MRQP040:j6`7dJoJPcwSUwP06,0*5E
$GPRMC,075408.00,A,5347.12202,N,00925.33226,E,1.753,255.98,160516,,,A*68
$IIDBT,010.0,f,003.0,M,,F*3D
$IIMTW,036.0,C*26
$IIVHW,230.0,T,253,M,001.1,N,002.0,K*4C
$IIHDM,253,M*38
$IIMTW,036.7,C*21
$IIRSA,006,A,,V*61
$IIMWV,032,R,012.9,N,A*28
$IIHDM,253,M*38
$IIDBT,010.8,f,003.24,M,,F*03
$IIVHW,255.9,T,253,M,001.3,N,002.4,K*40
$IIMTW,036.0,C*26
$IIMTW,036.7,C*21
$IIHDM,253,M*38
$IIRSA,006,A,,V*61
!AIVDO,1,1,,,B39MRQP04@:j6U7dJoBOwwT5wP06,0*7F
$IIMWV,000.5,R,016.5,N,A*3A
$IIHDM,253,M*38
$IIDBT,010.4,f,003.12,M,,F*0A
$IIVHW,232.0,T,253,M,001.1,N,002.0,K*4E
$IIMTW,036.0,C*26
$IIMTW,036.7,C*21
!AIVDO,1,1,,,B39MRQP04@:j6QWdJo6OKwTUwP06,0*33
$IIMWV,000.5,R,015.8,N,A*34
$IIHDM,253,M*38
$IIRSA,006,A,,V*61
$IIHDM,253,M*38
$IIDBT,011.1,f,003.33,M,,F*0D
$IIVHW,233.0,T,253,M,001.2,N,002.2,K*4E
$IIMTW,036.0,C*26
$IIMTW,036.7,C*21
!AIVDO,1,1,,,B39MRQP04@:j6J7dJnjNSwUUwP06,0*0D
$IIMWV,001.5,R,012.9,N,A*33
$IIHDM,254,M*3F
$IIRSA,006,A,,V*61
$IIHDM,254,M*3F
$GPGBS,075411.00,2.1,1.4,3.3,,,,*41
$IIDBT,009.9,f,002.97,M,,F*03
$IIVHW,234.0,T,254,M,001.3,N,002.4,K*49
$IIMTW,036.0,C*26
$IIMTW,036.7,C*21
$IIMWV,004.5,R,015.5,N,A*3D
!AIVDO,1,1,,,B39MRQP04@:j6J7dJnjNSwUUwP06,0*0D
$GPRMC,075412.00,A,5347.12096,N,00925.32935,E,1.774,252.95,160516,,,A*6B
$IIHDM,254,M*3F
$IIRSA,006,A,,V*61
$IIHDM,254,M*3F
$IIDBT,011.0,f,003.30,M,,F*0F
$IIVHW,252.9,T,254,M,001.4,N,002.5,K*46
$IIMTW,036.0,C*26
$IIMTW,036.7,C*21
$IIMWV,009.5,R,016.7,N,A*31
!AIVDO,1,1,,,B39MRQP04@:j6BWdJnJMkwVUwP06,0*7D
$IIHDM,254,M*3F
$IIRSA,006,A,,V*61
$IIHDM,254,M*3F
$IIDBT,010.2,f,003.6,M,,F*39
!AIVDO,1,1,,,B39MRQP04@:j6>WdJnBMKwW5sP06,0*4C
$IIVHW,236.0,T,254,M,001.2,N,002.2,K*4C
$IIMTW,036.0,C*26
$IIHDM,255,M*3E
$IIRSA,006,A,,V*61
$IIMWV,011,R,014.6,N,A*20
$IIMTW,036.7,C*21
$IIHDM,255,M*3E
$IIDBT,009.9,f,002.97,M,,F*03
$IIVHW,237.0,T,255,M,001.1,N,002.0,K*4D
$IIMTW,036.0,C*26
$IIMWV,018,R,014.6,N,A*29
$IIMTW,036.7,C*21
$IIHDM,255,M*3E
!AIVDO,1,1,,,B39MRQP040:j6:WdJn6M?wWUsP06,0*58
$IIRSA,005,A,,V*62
!AIVDM,1,1,,B,139TUb8P00Pc5KhNice:AOvN2895,0*1B
$GPGBS,075415.00,2.1,1.4,3.3,,,,*45
$IIHDM,255,M*3E
$IIDBT,009.7,f,002.91,M,,F*0B
$IIVHW,237.0,T,255,M,001.1,N,002.0,K*4D
$IIMTW,036.0,C*26
$IIMWV,015,R,015.2,N,A*21
$IIMTW,036.7,C*21
$GPRMC,075416.00,A,5347.11998,N,00925.32604,E,1.705,251.28,160516,,,A*65
!AIVDO,1,1,,,B39MRQP04@:j667dJmvM3w`5sP06,0*5C
$IIHDM,256,M*3D
$IIRSA,004,A,,V*63
$IIHDM,256,M*3D
$IIDBT,010.0,f,003.0,M,,F*3D
$IIVHW,251.2,T,256,M,001.0,N,001.8,K*46
$IIMWV,006,R,011.8,N,A*2D
$IIMTW,036.0,C*26
$IIMTW,036.7,C*21
!AIVDO,1,1,,,B39MRQP040:j61WdJmnLsw`UsP06,0*72
$IIHDM,256,M*3D
$IIRSA,003,A,,V*64
$IIMWV,350,R,010.2,N,A*26
$IIDBT,010.7,f,003.21,M,,F*09
$IIVHW,239.0,T,256,M,001.1,N,002.0,K*40
$IIMTW,036.0,C*26
$IIHDM,257,M*3C
$IIMTW,036.7,C*21
!AIVDO,1,1,,,B39MRQP040:j5u7dJmfLowa5sP06,0*20
$IIHDM,257,M*3C
$IIRSA,002,A,,V*65
$IIMWV,015.5,R,018.2,N,A*37
$IIDBT,010.5,f,003.15,M,,F*0C
$IIVHW,240.0,T,257,M,001.0,N,001.8,K*45
$IIHDM,257,M*3C
$IIMTW,036.0,C*26
$IIMTW,036.7,C*21
!AIVDO,1,1,,,B39MRQP040:j5q7dJmbLowaUsP06,0*40
$IIHDM,258,M*33
$IIRSA,001,A,,V*66
$GPGBS,075419.00,2.1,1.4,3.3,,,,*49
$IIMWV,022.5,R,022.5,N,A*3D
$GPRMC,075420.00,A,5347.11928,N,00925.32263,E,1.609,250.94,160516,,,A*65
$IIDBT,010.6,f,003.18,M,,F*02
$IIMTW,036.0,C*26
$IIHDM,258,M*33
$IIMTW,036.7,C*21
$IIVHW,240.0,T,258,M,000.9,N,001.6,K*4C
!AIVDO,1,1,,,B39MRQP040:j5m7dJmRLowb5sP06,0*0F
$IIHDM,258,M*33
$IIRSA,000,A,,V*67
$IIMWV,027.5,R,019.1,N,A*34
$IIDBT,010.4,f,003.12,M,,F*0A
$IIVHW,250.9,T,258,M,000.8,N,001.4,K*47
$IIMTW,036.0,C*26
$IIHDM,259,M*32
$IIMTW,036.7,C*21
!AIVDO,1,1,,,B39MRQP03h:j5i7dJmNLswbUsP06,0*34
!AIVDM,1,1,,B,339aD:0PAP0bwcJNj:55pDFd00oA,0*58
$IIHDM,259,M*32
$IIRSA,-002,A,,V*48
$IIMWV,024,R,019.0,N,A*2D
$IIDBT,010.1,f,003.3,M,,F*3F
$IIVHW,241.0,T,259,M,000.9,N,001.6,K*4C
$IIMTW,036.0,C*26
$IIMTW,036.7,C*21
$IIHDM,259,M*32
!AIVDO,1,1,,,B39MRQP03h:j5e7dJmJLwwc5sP06,0*59
$IIHDM,259,M*32
$IIRSA,-002,A,,V*48
$IIMWV,021.5,R,020.6,N,A*3F
$IIDBT,010.9,f,003.27,M,,F*01
$IIVHW,242.0,T,259,M,001.0,N,001.8,K*49
$IIMTW,036.0,C*26
$IIMTW,036.7,C*21
!AIVDO,1,1,,,B39MRQP03h:j5aWdJmBLwwcUwP06,0*51
