$VWMTW,18.3,C*18
!AIVDM,1,1,,A,B39F8K00@h;8MiWqWNejoweUoP06,0*75
!AIVDM,1,1,,A,D025bviGLDfr<`D01FpT0000000,2*3A
$GPGGA,101528.000,5512.0407,N,00952.7151,E,1,10,0.8,3.8,M,44.4,M,,0000*59
$GPGLL,5512.0407,N,00952.7151,E,101528.000,A,A*5A
$GPGSA,A,3,09,12,04,14,29,27,17,25,02,32,,,1.4,0.8,1.1*38
$VWVHW,,,,,5.62,N,10.40,K*79
$GPRMC,101528.000,A,5512.0407,N,00952.7151,E,4.98,329.03,110812,,,A*68
$SDDBT,45.5,f,13.9,M,7.6,F*08
$VWVLW,1753.8,N,274.45,N,,,,*44
$IIHDM,332.,M*10
$IIHDM,332.,M*10
!AIVDM,1,1,,A,13@nfph01`Pe0AROWU8pq76r0<0D,0*7C
$SDDPT,13.9,0.0,*40
$VWMTW,18.3,C*18
$HEHDT,332.,T*1D
$HEHDT,332.,T*1D
*45
$HEHDT,332.,T*1D
*45
!AIVDM,1,1,,B,13aaG`0uB@0dtkPOWiUHG6Vn`5@t,0*18
$IIVHW,,,332.,M,,,,*18
$IIHSC,,,332.,M*09
$GPGGA,101529.000,5512.0419,N,00952.7138,E,1,10,0.8,3.8,M,44.4,M,,0000*58
$IIGLL,5512.04,N,00952.71,E*73
$GPGLL,5512.0419,N,00952.7138,E,101529.000,A,A*5B
$SDDBT,46.0,f,14.0,M,7.7,F*01
$VWVHW,,,,,5.62,N,10.41,K*78
$IIVTG,,,094.,M,04.9,N,,*46
$GPVTG,329.38,T,,M,5.04,N,9.3,K,A*05
$SDDPT,14.1,0.0,*4F
$VWVLW,1753.8,N,274.45,N,,,,*44
$VWMTW,18.3,C*18
$GPGGA,101530.000,5512.0431,N,00952.7126,E,1,10,0.8,3.8,M,44.4,M,,0000*55
$GPGGA,101530.000,5512.0431,N,00952.7126,E,1,10,0.8,3.8,M,44.4,M,,0000*55
!AIVDM,1,1,,A,B3@oRBh05H;<dM7rBPO@Kwg5oP06,0*6C
$GPGLL,5512.0431,N,00952.7126,E,101530.000,A,A*56
$GPGSA,A,3,09,12,04,14,29,27,17,25,02,32,,,1.4,0.8,1.1*38
$VWVHW,,,,,5.62,N,10.41,K*78
$GPGSV,3,1,12,12,81,251,47,09,50,135,45,14,41,292,45,27,40,134,44*72
$SDDBT,46.3,f,14.1,M,7.7,F*03
$VWVLW,1753.8,N,274.45,N,,,,*44
$IIHDM,331.,M*13
$GPGSV,3,3,12,29,06,199,23,32,06,350,32,15,,178,33,22,,267,39*74
$SDDPT,14.1,0.0,*4F
$VWMTW,18.3,C*18
$HEHDT,331.,T*1E
$HEHDT,331.,T*1E
*47
$IIVHW,,,331.,M,,,,*1B
$IIHSC,,,332.,M*09
$IIGLL,5512.04,N,00952.71,E*73
$GPGGA,101531.000,5512.0442,N,00952.7113,E,1,10,0.8,3.8,M,44.4,M,,0000*56
$VWVHW,,,,,5.60,N,10.37,K*7B
$IIVTG,,,094.,M,05.0,N,,*4E
$GPGLL,5512.0442,N,00952.7113,E,101531.000,A,A*55
$SDDBT,45.8,f,14.0,M,7.6,F*0B
$VWVLW,1753.8,N,274.45,N,,,,*44
$VWVHW,,,094.,M,05.0,N,*6F
$VWVHW,,,094.,M,05.0,N,*6F
*32
$VWVHW,,,094.,M,05.0,N,*6F
*32
!AIVDM,1,1,,B,4025btiuj5b?O0cfW<OLrmQ000S:,0*2B
$SDDPT,14.0,0.0,*4E
$VWMTW,18.3,C*18
$VWMTW,18.3,C*18
!AIVDM,1,1,,B,H3@oRBh4p5=@5<T400000000000,2*5E
$VWMTW,18.3,C*18
!AIVDM,1,1,,B,H3@oRBh4p5=@5<T400000000000,2*5E
!AIVDM,1,1,,A,13@ng7h01k0f0t8OQB6p36Ip0d0P,0*60
$GPGGA,101532.000,5512.0454,N,00952.7099,E,1,10,0.8,3.8,M,44.4,M,,0000*51
$VWVHW,,,,,5.58,N,10.34,K*73
$GPGLL,5512.0454,N,00952.7099,E,101532.000,A,A*52
$SDDBT,45.6,f,13.9,M,7.6,F*0B
$VWVLW,1753.8,N,274.46,N,,,,*47
$GPVTG,326.77,T,,M,4.95,N,9.2,K,A*09
$SDDPT,13.9,0.0,*40
$VWMTW,18.3,C*18
$IIHDM,332.,M*10
$HEHDT,332.,T*1D
$HEHDT,332.,T*1D
*45
$IIVHW,,,332.,M,,,,*18
$IIVHW,,,332.,M,,,,*18
!AIVDM,1,1,,B,H39F8K0A8tDlM8U<00000000000,2*69
$IIHSC,,,332.,M*09
$IIGLL,5512.04,N,00952.71,E*73
$IIVTG,,,094.,M,04.9,N,,*46
$GPGGA,101533.000,5512.0465,N,00952.7086,E,1,10,0.8,3.8,M,44.4,M,,0000*5C
$VWVHW,,,,,5.58,N,10.34,K*73
$GPGLL,5512.0465,N,00952.7086,E,101533.000,A,A*5F
$SDDBT,45.9,f,14.0,M,7.7,F*0B
$VWVLW,1753.8,N,274.46,N,,,,*47
$SDDPT,14.0,0.0,*4E
$VWMTW,18.3,C*18
$GPGGA,101534.000,5512.0476,N,00952.7072,E,1,10,0.8,3.8,M,44.4,M,,0000*52
$GPGLL,5512.0476,N,00952.7072,E,101534.000,A,A*51
$GPGSA,A,3,09,12,04,14,29,27,17,25,02,32,,,1.4,0.8,1.1*38
$VWVHW,,,,,5.57,N,10.31,K*79
$GPRMC,101534.000,A,5512.0476,N,00952.7072,E,4.91,325.59,110812,,,A*69
$SDDBT,46.5,f,14.2,M,7.8,F*09
$VWVLW,1753.8,N,274.46,N,,,,*47
$VWVLW,1753.8,N,274.46,N,,,,*47
!AIVDO,1,1,,,B3aJHa00<@;CQ@7qH=k;Owi5kP06,0*39
$SDDPT,14.2,0.0,*4C
$VWMTW,18.3,C*18
$IIHDM,331.,M*13
$HEHDT,331.,T*1E
$HEHDT,331.,T*1E
*47
$HEHDT,331.,T*1E
*47
!AIVDM,1,1,,B,H39F8K4TC9=B14048kipl01`1220,0*70
$IIVHW,,,331.,M,,,,*1B
$IIHSC,,,332.,M*09
$IIGLL,5512.04,N,00952.70,E*72
$IIGLL,5512.04,N,00952.70,E*72
!AIVDM,1,1,,A,139JIS?0000dMLhOWhI5`0c405@t,0*45
$IIVTG,,,094.,M,04.9,N,,*46
$GPGGA,101535.000,5512.0487,N,00952.7058,E,1,10,0.8,3.8,M,44.4,M,,0000*55
$SDDBT,46.2,f,14.1,M,7.7,F*02
$VWVHW,,,,,5.60,N,10.37,K*7B
$VWVHW,,,,,5.60,N,10.37,K*7B
!AIVDM,1,1,,B,4025bviuj5b?S0hUffOO9bQ00D2q,0*7F
$SDDPT,14.1,0.0,*4F
$VWVLW,1753.8,N,274.47,N,,,,*46
$GPRMC,101535.000,A,5512.0487,N,00952.7058,E,4.97,325.99,110812,,,A*64
$VWMTW,18.3,C*18
$GPGGA,101536.000,5512.0498,N,00952.7045,E,1,10,0.8,3.8,M,44.4,M,,0000*54
$GPGLL,5512.0498,N,00952.7045,E,101536.000,A,A*57
$GPGSA,A,3,09,12,04,14,29,27,17,25,02,32,,,1.4,0.8,1.1*38
$VWVHW,,,,,5.57,N,10.31,K*79
$GPRMC,101536.000,A,5512.0498,N,00952.7045,E,4.93,326.29,110812,,,A*69
$SDDBT,46.0,f,14.0,M,7.7,F*01
$VWVLW,1753.8,N,274.47,N,,,,*46
$IIHDM,331.,M*13
$SDDPT,14.0,0.0,*4E
$VWMTW,18.3,C*18
$HEHDT,331.,T*1E
$HEHDT,331.,T*1E
*47
$IIVHW,,,331.,M,,,,*1B
$IIHSC,,,332.,M*09
$IIGLL,5512.04,N,00952.70,E*72
$GPGGA,101537.000,5512.0509,N,00952.7031,E,1,10,0.8,3.7,M,44.4,M,,0000*50
$GPGLL,5512.0509,N,00952.7031,E,101537.000,A,A*5C
$IIVTG,,,094.,M,04.9,N,,*46
$IIVTG,,,094.,M,04.9,N,,*46
!AIVDM,1,1,,B,13@nfph01`Pe088OWTRHso;<08Ew,0*64
$SDDBT,46.3,f,14.1,M,7.7,F*03
$VWVHW,,,,,5.62,N,10.40,K*79
$VWVHW,,,094.,M,04.9,N,*67
$VWVHW,,,094.,M,04.9,N,*67
*4B
$VWVHW,,,094.,M,04.9,N,*67
*4B
!AIVDO,1,1,,,B3aJHa00<@;CPsWqH?o<WwjUkP06,0*11
$SDDPT,14.1,0.0,*4F
$VWVLW,1753.8,N,274.47,N,,,,*46
$VWMTW,18.3,C*18
$GPGGA,101538.000,5512.0521,N,00952.7018,E,1,10,0.8,3.7,M,44.4,M,,0000*5E
$GPGLL,5512.0521,N,00952.7018,E,101538.000,A,A*52
$GPGSA,A,3,09,12,04,14,29,27,17,25,02,32,,,1.4,0.8,1.1*38
$VWVHW,,,,,5.58,N,10.34,K*73
$GPRMC,101538.000,A,5512.0521,N,00952.7018,E,4.94,327.39,110812,,,A*6B
$SDDBT,46.4,f,14.1,M,7.7,F*04
$VWVLW,1753.8,N,274.47,N,,,,*46
$VWVLW,1753.8,N,274.47,N,,,,*46
!AIVDO,1,1,,,B3aJHa00<@;CPm7qH@W<Wwk5kP06,0*49
$SDDPT,14.1,0.0,*4F
$VWMTW,18.3,C*18
$IIHDM,332.,M*10
$HEHDT,332.,T*1D
$HEHDT,332.,T*1D
*45
$IIVHW,,,332.,M,,,,*18
$IIHSC,,,332.,M*09
$IIGLL,5512.05,N,00952.70,E*73
$GPGGA,101539.000,5512.0532,N,00952.7005,E,1,10,0.8,3.7,M,44.4,M,,0000*51
$IIVTG,,,094.,M,04.9,N,,*46
$GPGLL,5512.0532,N,00952.7005,E,101539.000,A,A*5D
$VWVHW,,,,,5.60,N,10.38,K*74
$VWVHW,,,094.,M,04.9,N,*67
$VWVHW,,,094.,M,04.9,N,*67
*4B
$GPRMC,101539.000,A,5512.0532,N,00952.7005,E,4.97,326.89,110812,,,A*6D
$SDDBT,46.4,f,14.1,M,7.7,F*04
$VWVLW,1753.8,N,274.47,N,,,,*46
$SDDPT,14.1,0.0,*4F
$VWMTW,18.3,C*18
$GPGGA,101540.000,5512.0544,N,00952.6991,E,1,10,0.8,3.7,M,44.4,M,,0000*5B
$GPGLL,5512.0544,N,00952.6991,E,101540.000,A,A*57
$GPGSA,A,3,09,12,04,14,29,27,17,25,02,32,,,1.4,0.8,1.1*38
$VWVHW,,,,,5.57,N,10.32,K*7A
$GPGSV,3,1,12,12,81,251,47,09,50,135,44,14,41,292,46,27,40,134,41*75
$SDDBT,46.8,f,14.3,M,7.8,F*05
$VWVLW,1753.8,N,274.47,N,,,,*46
$GPGSV,3,2,12,25,38,255,39,04,21,083,41,17,14,041,35,02,12,121,44*75
$SDDPT,14.3,0.0,*4D
$VWMTW,18.3,C*18
$IIHDM,332.,M*10
$GPVTG,326.31,T,,M,4.94,N,9.2,K,A*0A
$HEHDT,332.,T*1D
$HEHDT,332.,T*1D
*45
$HEHDT,332.,T*1D
*45
!AIVDM,1,1,,B,13aaG`0uB@0dtU2OWh28DVW>`@H9,0*50
$IIVHW,,,332.,M,,,,*18
$GPGGA,101541.000,5512.0555,N,00952.6978,E,1,10,0.8,3.7,M,44.4,M,,0000*5D
$IIHSC,,,332.,M*09
$GPGLL,5512.0555,N,00952.6978,E,101541.000,A,A*51
$SDDBT,47.0,f,14.3,M,7.8,F*0C
$VWVHW,,,,,5.57,N,10.32,K*7A
$IIGLL,5512.05,N,00952.70,E*73
$GPRMC,101541.000,A,5512.0555,N,00952.6978,E,4.97,327.52,110812,,,A*66
$SDDPT,14.3,0.0,*4D
$VWVLW,1753.8,N,274.47,N,,,,*46
$IIVTG,,,094.,M,04.9,N,,*46
$IIVTG,,,094.,M,04.9,N,,*46
!AIVDM,1,1,,A,4025btiuj5b?a0cfWJOLroi000S:,0*4A
$VWMTW,18.3,C*18
$VWVHW,,,094.,M,04.9,N,*67
$VWVHW,,,094.,M,04.9,N,*67
*4B
$GPGGA,101542.000,5512.0567,N,00952.6965,E,1,10,0.8,3.7,M,44.4,M,,0000*53
$VWVHW,,,,,5.54,N,10.26,K*7C
$GPGLL,5512.0567,N,00952.6965,E,101542.000,A,A*5F
$SDDBT,46.6,f,14.2,M,7.8,F*0A
$VWVLW,1753.8,N,274.48,N,,,,*49
$SDDPT,14.2,0.0,*4C
$VWMTW,18.3,C*18
$VWMTW,18.3,C*18
!AIVDM,1,1,,B,13@ng7h01k0f0kNOQ@o`36Ip0d0Q,0*40
$IIHDM,332.,M*10
$HEHDT,332.,T*1D
$HEHDT,332.,T*1D
*45
$IIVHW,,,332.,M,,,,*18
$IIHSC,,,332.,M*09
$IIHSC,,,332.,M*09
!AIVDM,1,1,,B,13@ng@wPAJ0dP2bOWg5s8`mH0HIJ,0*69
$IIGLL,5512.05,N,00952.69,E*7B
$GPGGA,101543.000,5512.0578,N,00952.6952,E,1,10,0.8,3.7,M,44.4,M,,0000*58
$VWVHW,,,,,5.57,N,10.31,K*79
$IIVTG,,,094.,M,04.9,N,,*46
$GPGLL,5512.0578,N,00952.6952,E,101543.000,A,A*54
$SDDBT,46.6,f,14.2,M,7.8,F*0A
$VWVLW,1753.8,N,274.48,N,,,,*49
$VWVHW,,,094.,M,04.9,N,*67
$VWVHW,,,094.,M,04.9,N,*67
*4B
$SDDPT,14.2,0.0,*4C
$VWMTW,18.3,C*18
$GPGGA,101544.000,5512.0590,N,00952.6939,E,1,10,0.8,3.7,M,44.4,M,,0000*54
$GPGLL,5512.0590,N,00952.6939,E,101544.000,A,A*58
$GPGSA,A,3,09,12,04,14,29,27,17,25,02,32,,,1.4,0.8,1.1*38
$VWVHW,,,,,5.56,N,10.29,K*71
$GPRMC,101544.000,A,5512.0590,N,00952.6939,E,4.99,328.12,110812,,,A*6A
$SDDBT,47.2,f,14.4,M,7.9,F*08
$VWVLW,1753.8,N,274.48,N,,,,*49
$VWVLW,1753.8,N,274.48,N,,,,*49
!AIVDO,1,1,,,B3aJHa00<@;CP=WqHDs=7wn5kP06,0*3D
$SDDPT,14.4,0.0,*4A
$VWMTW,18.3,C*18
$VWMTW,18.3,C*18
!AIVDM,1,1,,B,13@ngtgP000eA@dO`3i3cgwF0D0@,0*6A
$IIHDM,332.,M*10
$HEHDT,332.,T*1D
$HEHDT,332.,T*1D
*45
$GPGGA,101545.000,5512.0601,N,00952.6926,E,1,10,0.8,3.7,M,44.4,M,,0000*50
$IIVHW,,,333.,M,,,,*19
$GPGLL,5512.0601,N,00952.6926,E,101545.000,A,A*5C
$GPGSA,A,3,09,12,04,14,29,27,17,25,02,32,,,1.4,0.8,1.1*38
$VWVHW,,,,,5.57,N,10.32,K*7A
$IIHSC,,,332.,M*09
$IIHSC,,,332.,M*09
!AIVDM,1,1,,A,4025bviuj5b?e0hUfjOO9bi00D2r,0*7D
$SDDBT,47.9,f,14.6,M,8.0,F*07
$VWVLW,1753.8,N,274.48,N,,,,*49
$IIGLL,5512.05,N,00952.69,E*7B
$GPRMC,101545.000,A,5512.0601,N,00952.6926,E,4.92,327.66,110812,,,A*69
$SDDPT,14.7,0.0,*49
$VWMTW,18.3,C*18
$IIVTG,,,094.,M,04.9,N,,*46
$VWVHW,,,094.,M,04.9,N,*67
$VWVHW,,,094.,M,04.9,N,*67
*4B
$GPGGA,101546.000,5512.0613,N,00952.6914,E,1,09,0.9,3.6,M,44.4,M,,0000*59
$VWVHW,,,,,5.56,N,10.29,K*71
$GPGLL,5512.0613,N,00952.6914,E,101546.000,A,A*5D
$SDDBT,48.4,f,14.8,M,8.1,F*0A
$VWVLW,1753.8,N,274.48,N,,,,*49
$SDDPT,14.8,0.0,*46
$VWMTW,18.3,C*18
$IIHDM,333.,M*11
$HEHDT,333.,T*1C
$HEHDT,333.,T*1C
*43
$IIVHW,,,333.,M,,,,*19
$IIVHW,,,333.,M,,,,*19
!AIVDM,1,1,,B,139JIS?0000dMMvOWhS7<@cL0<0:,0*22
$IIHSC,,,332.,M*09
$GPGGA,101547.000,5512.0624,N,00952.6901,E,1,08,1.2,3.6,M,44.4,M,,0000*53
$GPGLL,5512.0624,N,00952.6901,E,101547.000,A,A*5C
$IIGLL,5512.06,N,00952.69,E*78
$GPGSA,A,3,09,12,04,14,27,17,25,02,,,,,2.2,1.2,1.9*34
$SDDBT,48.4,f,14.8,M,8.1,F*0A
$VWVHW,,,,,5.52,N,10.23,K*7F
$IIVTG,,,094.,M,04.9,N,,*46
$GPRMC,101547.000,A,5512.0624,N,00952.6901,E,4.92,329.62,110812,,,A*63
$SDDPT,14.8,0.0,*46
$VWVLW,1753.8,N,274.48,N,,,,*49
$VWVHW,,,094.,M,04.9,N,*67
$VWVHW,,,094.,M,04.9,N,*67
*4B
$VWVHW,,,094.,M,04.9,N,*67
*4B
!AIVDM,1,1,,A,13aaG`0uB@0dtL`OWg7HCFUL`8L<,0*7C
$VWMTW,18.3,C*18
$GPGGA,101548.000,5512.0636,N,00952.6889,E,1,09,0.9,3.6,M,44.4,M,,0000*55
$GPGLL,5512.0636,N,00952.6889,E,101548.000,A,A*51
$VWVHW,,,,,5.55,N,10.28,K*73
$GPGSA,A,3,09,12,04,14,29,27,17,25,02,,,,1.6,0.9,1.3*38
$SDDBT,48.3,f,14.7,M,8.1,F*02
$VWVLW,1753.8,N,274.48,N,,,,*49
$SDDPT,14.8,0.0,*46
$VWMTW,18.3,C*18
$IIHDM,334.,M*16
$HEHDT,334.,T*1B
$HEHDT,334.,T*1B
*45
$IIVHW,,,334.,M,,,,*1E
$IIHSC,,,332.,M*09
$GPGGA,101549.000,5512.0648,N,00952.6877,E,1,09,0.9,3.6,M,44.4,M,,0000*5C
$GPGLL,5512.0648,N,00952.6877,E,101549.000,A,A*58
$IIGLL,5512.06,N,00952.69,E*78
$GPGSA,A,3,09,12,04,14,29,27,17,25,02,,,,1.6,0.9,1.3*38
$VWVHW,,,,,5.57,N,10.31,K*79
$IIVTG,,,094.,M,04.9,N,,*46
$GPRMC,101549.000,A,5512.0648,N,00952.6877,E,5.01,331.29,110812,,,A*6A
$SDDBT,49.1,f,15.0,M,8.2,F*04
$VWVLW,1753.8,N,274.49,N,,,,*48
$VWVHW,,,094.,M,04.9,N,*67
$VWVHW,,,094.,M,04.9,N,*67
*4B
$SDDPT,15.0,0.0,*4F
$VWMTW,18.3,C*18
$GPGGA,101550.000,5512.0660,N,00952.6866,E,1,10,0.8,3.6,M,44.4,M,,0000*57
$GPGLL,5512.0660,N,00952.6866,E,101550.000,A,A*5A
$GPGSA,A,3,09,12,04,14,29,27,17,25,02,32,,,1.4,0.8,1.1*38
$VWVHW,,,,,5.59,N,10.35,K*73
$GPGSV,3,1,12,12,81,251,47,09,50,135,44,14,41,292,44,27,40,134,44*72
$SDDBT,49.6,f,15.1,M,8.3,F*03
$VWVLW,1753.8,N,274.49,N,,,,*48
$GPGSV,3,2,12,25,38,255,39,04,21,083,41,17,14,041,39,02,12,121,44*79
$SDDPT,15.1,0.0,*4E
$VWMTW,18.3,C*18
$IIHDM,334.,M*16
$HEHDT,334.,T*1B
$HEHDT,334.,T*1B
*45
$IIVHW,,,334.,M,,,,*1E
$GPGGA,101551.000,5512.0672,N,00952.6854,E,1,10,0.8,3.6,M,44.4,M,,0000*54
$IIHSC,,,332.,M*09
$GPGLL,5512.0672,N,00952.6854,E,101551.000,A,A*59
$VWVHW,,,,,5.62,N,10.41,K*78
$IIGLL,5512.06,N,00952.68,E*79
$GPGSA,A,3,09,12,04,14,29,27,17,25,02,32,,,1.4,0.8,1.1*38
$SDDBT,49.8,f,15.2,M,8.3,F*0E
$VWVLW,1753.8,N,274.49,N,,,,*48
$IIVTG,,,094.,M,04.9,N,,*46
$IIVTG,,,094.,M,04.9,N,,*46
!AIVDM,1,1,,B,4025btiuj5b?k0cfWTOLrpA000S:,0*6A
$SDDPT,15.2,0.0,*4D
$VWMTW,18.3,C*18
$VWVHW,,,094.,M,04.9,N,*67
$VWVHW,,,094.,M,04.9,N,*67
*4B
$GPGGA,101552.000,5512.0685,N,00952.6842,E,1,10,0.8,3.6,M,44.4,M,,0000*58
$GPGLL,5512.0685,N,00952.6842,E,101552.000,A,A*55
$GPGSA,A,3,09,12,04,14,29,27,17,25,02,32,,,1.4,0.8,1.1*38
$VWVHW,,,,,5.63,N,10.43,K*7B
$GPRMC,101552.000,A,5512.0685,N,00952.6842,E,5.00,331.68,110812,,,A*63
$SDDBT,50.5,f,15.4,M,8.4,F*0A
$VWVLW,1753.8,N,274.49,N,,,,*48
$VWVLW,1753.8,N,274.49,N,,,,*48
!AIVDM,1,1,,A,13@ng7h01k0f0cTOQ?g`36Ip0hO4,0*30
$SDDPT,15.4,0.0,*4B
$VWMTW,18.3,C*18
$IIHDM,334.,M*16
$HEHDT,334.,T*1B
$HEHDT,334.,T*1B
*45
$IIVHW,,,334.,M,,,,*1E
$GPGGA,101553.000,5512.0697,N,00952.6830,E,1,09,1.1,3.7,M,44.4,M,,0000*5E
$IIHSC,,,332.,M*09
$IIHSC,,,332.,M*09
!AIVDM,1,1,,A,13@ng@w01J0dOl0OWgEK58kd08OE,0*27
$VWVHW,,,,,5.65,N,10.46,K*78
$IIGLL,5512.06,N,00952.68,E*79
$GPRMC,101553.000,A,5512.0697,N,00952.6830,E,4.97,330.98,110812,,,A*65
$SDDBT,51.3,f,15.6,M,8.6,F*0D
$VWVLW,1753.8,N,274.49,N,,,,*48
$IIVTG,,,094.,M,04.9,N,,*46
$IIVTG,,,094.,M,04.9,N,,*46
!AIVDM,1,1,,B,13aaG`0uB@0dtETOWfE`C6U``0Rf,0*09
$SDDPT,15.7,0.0,*48
$VWMTW,18.3,C*18
$VWVHW,,,094.,M,04.9,N,*67
$VWVHW,,,094.,M,04.9,N,*67
*4B
$VWVHW,,,094.,M,04.9,N,*67
*4B
!AIVDM,1,1,,B,B3@o:hP07@;7;@7qC;l:?ws5kP06,0*12
$GPGGA,101554.000,5512.0708,N,00952.6819,E,1,08,1.2,3.7,M,44.4,M,,0000*57
$VWVHW,,,,,5.63,N,10.43,K*7B
$GPGSA,A,3,09,12,04,14,27,17,25,02,,,,,2.2,1.2,1.9*34
$SDDBT,52.0,f,15.8,M,8.7,F*02
$VWVLW,1753.8,N,274.49,N,,,,*48
$SDDPT,15.8,0.0,*47
$VWMTW,18.3,C*18
$IIHDM,334.,M*16
$HEHDT,334.,T*1B
$HEHDT,334.,T*1B
*45
$IIVHW,,,334.,M,,,,*1E
$IIVHW,,,334.,M,,,,*1E
!AIVDM,1,1,,A,13@ngtgP000eAA0O`3i3cgwf0D0@,0*1C
$GPGGA,101555.000,5512.0720,N,00952.6807,E,1,08,1.2,3.7,M,44.4,M,,0000*53
$IIHSC,,,332.,M*09
$GPGLL,5512.0720,N,00952.6807,E,101555.000,A,A*5D
$IIGLL,5512.06,N,00952.68,E*79
$GPGSA,A,3,09,12,04,14,27,17,25,02,,,,,2.2,1.2,1.9*34
$SDDBT,52.0,f,15.8,M,8.7,F*02
$VWVHW,,,,,5.62,N,10.41,K*78
$IIVTG,,,094.,M,04.9,N,,*46
$GPGSV,3,2,12,25,38,255,39,04,21,083,41,17,14,041,39,02,12,121,44*79
$SDDPT,15.8,0.0,*47
$VWVLW,1753.8,N,274.49,N,,,,*48
$VWVHW,,,094.,M,04.9,N,*67
$VWVHW,,,094.,M,04.9,N,*67
*4B
$VWVHW,,,094.,M,04.9,N,*67
*4B
!AIVDM,1,1,,A,139JIS?0000dMMvOWhS7>hcf0<0:,0*21
$VWMTW,18.3,C*18
$VWMTW,18.3,C*18
!AIVDM,1,1,,A,E>j>n4@;a2QUh92S@27;hJItP000I8f8?htc@00000N01000000000000000,0*2E
$GPGGA,101556.000,5512.0732,N,00952.6794,E,1,09,1.1,3.7,M,44.4,M,,0000*54
$SDDBT,52.2,f,15.9,M,8.7,F*01
$VWVHW,,,,,5.57,N,10.32,K*7A
$GPRMC,101556.000,A,5512.0732,N,00952.6794,E,4.99,330.12,110812,,,A*63
$SDDPT,15.9,0.0,*46
$VWVLW,1753.8,N,274.50,N,,,,*40
$VWMTW,18.3,C*18
$IIHDM,334.,M*16
$HEHDT,334.,T*1B
$HEHDT,334.,T*1B
*45
$IIVHW,,,334.,M,,,,*1E
$GPGGA,101557.000,5512.0744,N,00952.6782,E,1,09,1.1,3.8,M,44.4,M,,0000*5C
$GPGLL,5512.0744,N,00952.6782,E,101557.000,A,A*5F
$IIHSC,,,332.,M*09
$GPGSA,A,3,09,12,04,14,32,27,17,25,02,,,,2.0,1.1,1.7*3A
$SDDBT,52.3,f,15.9,M,8.7,F*00
$VWVHW,,,,,5.57,N,10.32,K*7A
$IIGLL,5512.07,N,00952.67,E*77
$GPRMC,101557.000,A,5512.0744,N,00952.6782,E,5.02,330.14,110812,,,A*61
$SDDPT,15.9,0.0,*46
$VWVLW,1753.8,N,274.50,N,,,,*40
$IIVTG,,,094.,M,04.9,N,,*46
$IIVTG,,,094.,M,04.9,N,,*46
!AIVDM,1,1,,B,B39F8K00@h;8M47qVsmlWwtUoP06,0*50
$VWMTW,18.3,C*18
$VWVHW,,,094.,M,04.9,N,*67
$VWVHW,,,094.,M,04.9,N,*67
*4B
$GPGGA,101558.000,5512.0756,N,00952.6770,E,1,10,0.8,3.8,M,44.4,M,,0000*5D
$VWVHW,,,,,5.57,N,10.32,K*7A
$GPGLL,5512.0756,N,00952.6770,E,101558.000,A,A*5E
$SDDBT,52.6,f,16.0,M,8.8,F*00
$VWVLW,1753.8,N,274.50,N,,,,*40
$SDDPT,16.0,0.0,*4C
$VWMTW,18.3,C*18
$VWMTW,18.3,C*18
!AIVDM,1,1,,A,13aaG`0tB@0dt?dOWecpD6Sj`L0a,0*66
$IIHDM,334.,M*16
$HEHDT,334.,T*1B
$HEHDT,334.,T*1B
*45
$IIVHW,,,334.,M,,,,*1E
$GPGGA,101559.000,5512.0768,N,00952.6757,E,1,10,0.8,3.8,M,44.4,M,,0000*54
$GPGLL,5512.0768,N,00952.6757,E,101559.000,A,A*57
$IIHSC,,,332.,M*09
$GPGSA,A,3,09,12,04,14,32,27,17,25,02,29,,,1.4,0.8,1.1*38
$VWVHW,,,,,5.58,N,10.34,K*73
$IIGLL,5512.07,N,00952.67,E*77
$GPRMC,101559.000,A,5512.0768,N,00952.6757,E,5.02,329.79,110812,,,A*6A
$SDDBT,53.2,f,16.2,M,8.9,F*06
$VWVLW,1753.8,N,274.50,N,,,,*40
$IIVTG,,,094.,M,04.9,N,,*46
$SDDPT,16.2,0.0,*4E
$VWMTW,18.3,C*18
$VWVHW,,,094.,M,04.9,N,*67
$VWVHW,,,094.,M,04.9,N,*67
*4B
$VWVHW,,,094.,M,04.9,N,*67
*4B
!AIVDM,1,1,,B,B3@oRBh05H;<cJ7rBbcACwP5oP06,0*4F
$GPGGA,101600.000,5512.0780,N,00952.6745,E,1,10,0.8,3.8,M,44.4,M,,0000*5E
$GPGLL,5512.0780,N,00952.6745,E,101600.000,A,A*5D
$VWVHW,,,,,5.60,N,10.38,K*74
$GPGSA,A,3,09,12,04,14,32,27,17,25,02,29,,,1.4,0.8,1.1*38
$SDDBT,53.8,f,16.4,M,9.0,F*02
$VWVLW,1753.8,N,274.50,N,,,,*40
$GPGSV,3,2,12,25,38,255,39,04,21,083,41,17,14,041,39,02,12,121,43*7E
$SDDPT,16.4,0.0,*48
$VWMTW,18.3,C*18
$IIHDM,333.,M*11
$HEHDT,333.,T*1C
$HEHDT,333.,T*1C
*43
$IIVHW,,,333.,M,,,,*19
$GPGGA,101601.000,5512.0792,N,00952.6733,E,1,10,0.8,3.9,M,44.4,M,,0000*5C
$GPGLL,5512.0792,N,00952.6733,E,101601.000,A,A*5E
$IIHSC,,,332.,M*09
$GPGSA,A,3,09,12,04,14,32,27,17,25,02,29,,,1.4,0.8,1.1*38
$SDDBT,54.1,f,16.5,M,9.0,F*0D
$VWVHW,,,,,5.65,N,10.46,K*78
$IIGLL,5512.07,N,00952.67,E*77
$GPRMC,101601.000,A,5512.0792,N,00952.6733,E,4.99,330.40,110812,,,A*62
$SDDPT,16.5,0.0,*49
$VWVLW,1753.8,N,274.50,N,,,,*40
$IIVTG,,,094.,M,04.9,N,,*46
$IIVTG,,,094.,M,04.9,N,,*46
!AIVDM,1,1,,A,4025btiuj5b@10cfWfOLrmi00L3>,0*53
$VWMTW,18.3,C*18
$VWVHW,,,094.,M,04.9,N,*67
$VWVHW,,,094.,M,04.9,N,*67
*4B
$GPGGA,101602.000,5512.0804,N,00952.6721,E,1,10,0.8,3.9,M,44.4,M,,0000*5C
$VWVHW,,,,,5.60,N,10.37,K*7B
$GPGLL,5512.0804,N,00952.6721,E,101602.000,A,A*5E
$SDDBT,54.2,f,16.5,M,9.0,F*0E
$VWVLW,1753.8,N,274.50,N,,,,*40
$SDDPT,16.5,0.0,*49
$VWMTW,18.3,C*18
$IIHDM,332.,M*10
$HEHDT,332.,T*1D
$HEHDT,332.,T*1D
*45
$HEHDT,332.,T*1D
*45
!AIVDM,1,1,,B,13@ng7h01k0f0ShOQ>Vp36Kp0`1u,0*2A
$IIVHW,,,332.,M,,,,*18
$GPGGA,101603.000,5512.0816,N,00952.6709,E,1,09,0.9,3.9,M,44.4,M,,0000*5D
$GPGLL,5512.0816,N,00952.6709,E,101603.000,A,A*56
$GPGSA,A,3,09,12,04,14,27,17,25,02,29,,,,1.6,0.9,1.3*38
$VWVHW,,,,,5.60,N,10.38,K*74
$IIHSC,,,332.,M*09
$GPRMC,101603.000,A,5512.0816,N,00952.6709,E,5.00,331.02,110812,,,A*6C
$SDDBT,55.0,f,16.8,M,9.2,F*02
$VWVLW,1753.8,N,274.51,N,,,,*41
$IIGLL,5512.07,N,00952.67,E*77
$SDDPT,16.8,0.0,*44
$VWMTW,18.3,C*18
$IIVTG,,,094.,M,04.9,N,,*46
$VWVHW,,,094.,M,04.9,N,*67
$VWVHW,,,094.,M,04.9,N,*67
*4B
$VWVHW,,,094.,M,04.9,N,*67
*4B
!AIVDM,1,1,,B,13@ng@wOiI0dOVDOWgOs6`p:00RF,0*74
$GPGGA,101604.000,5512.0828,N,00952.6697,E,1,09,0.9,3.9,M,44.4,M,,0000*51
$GPGLL,5512.0828,N,00952.6697,E,101604.000,A,A*5A
$VWVHW,,,,,5.58,N,10.34,K*73
$GPRMC,101604.000,A,5512.0828,N,00952.6697,E,5.01,331.65,110812,,,A*60
$SDDBT,55.8,f,17.0,M,9.3,F*02
$VWVLW,1753.8,N,274.51,N,,,,*41
$VWVLW,1753.8,N,274.51,N,,,,*41
!AIVDM,1,1,,B,13aaG`0sR@0dt8hOWdqpAnP6`D0a,0*60
$SDDPT,17.0,0.0,*4D
$VWMTW,18.3,C*18
$IIHDM,332.,M*10
$HEHDT,332.,T*1D
$HEHDT,332.,T*1D
*45
$IIVHW,,,332.,M,,,,*18
$GPGGA,101605.000,5512.0839,N,00952.6685,E,1,09,0.9,3.9,M,44.4,M,,0000*53
$GPGLL,5512.0839,N,00952.6685,E,101605.000,A,A*58
$VWVHW,,,,,5.55,N,10.28,K*73
$IIHSC,,,332.,M*09
$GPGSA,A,3,09,12,04,14,27,17,25,02,29,,,,1.6,0.9,1.3*38
$SDDBT,56.4,f,17.2,M,9.4,F*08
$VWVLW,1753.8,N,274.51,N,,,,*41
$IIGLL,5512.08,N,00952.66,E*79
$GPGSV,3,2,12,25,38,255,39,04,21,083,41,17,14,041,40,02,12,121,44*77
$SDDPT,17.2,0.0,*4F
$VWMTW,18.3,C*18
$IIVTG,,,094.,M,04.9,N,,*46
$IIVTG,,,094.,M,04.9,N,,*46
!AIVDM,1,1,,B,13@ngtgP000eAA0O`3i3cgv>0L0@,0*4E
$VWVHW,,,094.,M,04.9,N,*67
$VWVHW,,,094.,M,04.9,N,*67
*4B
$GPGGA,101606.000,5512.0851,N,00952.6673,E,1,10,0.8,3.9,M,44.4,M,,0000*5E
$VWVHW,,,,,5.63,N,10.43,K*7B
$GPGSA,A,3,09,12,04,14,32,27,17,25,02,29,,,1.4,0.8,1.1*38
$SDDBT,56.2,f,17.1,M,9.4,F*0D
$VWVLW,1753.8,N,274.51,N,,,,*41
$VWVLW,1753.8,N,274.51,N,,,,*41
!AIVDM,1,1,,B,139JIS?0000dMN0OWhSHNhb:0@3u,0*05
$SDDPT,17.1,0.0,*4C
$VWMTW,18.3,C*18
$IIHDM,334.,M*16
$HEHDT,334.,T*1B
$HEHDT,334.,T*1B
*45
$IIVHW,,,334.,M,,,,*1E
$GPGGA,101607.000,5512.0863,N,00952.6661,E,1,10,0.8,3.9,M,44.4,M,,0000*5D
$GPGLL,5512.0863,N,00952.6661,E,101607.000,A,A*5F
$GPGLL,5512.0863,N,00952.6661,E,101607.000,A,A*5F
!AIVDM,1,1,,B,13@ng7P0280ekBtONs@ho0f@0@4K,0*17
$VWVHW,,,,,5.58,N,10.34,K*73
$IIHSC,,,332.,M*09
$GPGSA,A,3,09,12,04,14,32,27,17,25,02,29,,,1.4,0.8,1.1*38
$SDDBT,56.3,f,17.2,M,9.4,F*0F
$VWVLW,1753.8,N,274.51,N,,,,*41
$IIGLL,5512.08,N,00952.66,E*79
$SDDPT,17.2,0.0,*4F
$VWMTW,18.3,C*18
$IIVTG,,,094.,M,04.9,N,,*46
$VWVHW,,,094.,M,04.9,N,*67
$VWVHW,,,094.,M,04.9,N,*67
*4B
$GPGGA,101608.000,5512.0875,N,00952.6649,E,1,10,0.8,3.9,M,44.4,M,,0000*5F
$GPGLL,5512.0875,N,00952.6649,E,101608.000,A,A*5D
$GPGLL,5512.0875,N,00952.6649,E,101608.000,A,A*5D
!AIVDM,1,1,,B,13@oVr800l0d;F`OOP4SoSB>05A0,0*32
$VWVHW,,,,,5.56,N,10.29,K*71
$GPGSA,A,3,09,12,04,14,32,27,17,25,02,29,,,1.4,0.8,1.1*38
$SDDBT,57.1,f,17.4,M,9.5,F*0B
$VWVLW,1753.8,N,274.51,N,,,,*41
$SDDPT,17.4,0.0,*49
$VWMTW,18.3,C*18
$VWMTW,18.3,C*18
!AIVDM,1,1,,A,13@nfphOi`PdwRJOWR:Hro:D00S1,0*50
$IIHDM,332.,M*10
$HEHDT,332.,T*1D
$HEHDT,332.,T*1D
*45
$GPGGA,101609.000,5512.0887,N,00952.6636,E,1,10,0.8,4.0,M,44.4,M,,0000*55
$IIVHW,,,332.,M,,,,*18
$GPGLL,5512.0887,N,00952.6636,E,101609.000,A,A*59
$GPGSA,A,3,09,12,04,14,32,27,17,25,02,29,,,1.4,0.8,1.1*38
$VWVHW,,,,,5.51,N,10.20,K*7F
$IIHSC,,,332.,M*09
$GPRMC,101609.000,A,5512.0887,N,00952.6636,E,4.93,329.92,110812,,,A*68
$SDDBT,57.8,f,17.6,M,9.6,F*03
$VWVLW,1753.8,N,274.51,N,,,,*41
$IIGLL,5512.08,N,00952.66,E*79
$SDDPT,17.6,0.0,*4B
$VWMTW,18.3,C*18
$IIVTG,,,094.,M,04.9,N,,*46
$VWVHW,,,094.,M,04.9,N,*67
$VWVHW,,,094.,M,04.9,N,*67
*4B
$GPGGA,101610.000,5512.0899,N,00952.6624,E,1,09,0.9,4.0,M,44.4,M,,0000*58
$GPGLL,5512.0899,N,00952.6624,E,101610.000,A,A*5D
$VWVHW,,,,,5.57,N,10.31,K*79
$GPGSA,A,3,09,12,04,14,27,17,25,02,29,,,,1.6,0.9,1.3*38
$SDDBT,58.2,f,17.7,M,9.7,F*06
$VWVLW,1753.8,N,274.52,N,,,,*42
$VWVLW,1753.8,N,274.52,N,,,,*42
!AIVDM,1,1,,A,13@njEh0000dAF2ON8G3V1NB086A,0*45
$SDDPT,17.7,0.0,*4A
$VWMTW,18.3,C*18
$IIHDM,334.,M*16
$HEHDT,334.,T*1B
$HEHDT,334.,T*1B
*45
$GPGGA,101611.000,5512.0910,N,00952.6612,E,1,09,0.9,4.0,M,44.4,M,,0000*5C
$IIVHW,,,334.,M,,,,*1E
$GPGLL,5512.0910,N,00952.6612,E,101611.000,A,A*59
$GPGSA,A,3,09,12,04,14,27,17,25,02,29,,,,1.6,0.9,1.3*38
$VWVHW,,,,,5.56,N,10.29,K*71
$IIHSC,,,332.,M*09
$IIHSC,,,332.,M*09
!AIVDM,1,1,,B,4025bw1uj5b@:0cOkfOnoMA00<1>,0*50
$SDDBT,58.4,f,17.8,M,9.7,F*0F
$VWVLW,1753.8,N,274.52,N,,,,*42
$IIGLL,5512.08,N,00952.66,E*79
$IIGLL,5512.08,N,00952.66,E*79
!AIVDM,1,1,,A,33aaG`0tB@0dt12OWcv8=VLD`0Qi,0*5A
$SDDPT,17.8,0.0,*45
$VWMTW,18.3,C*18
$IIVTG,,,094.,M,04.9,N,,*46
$VWVHW,,,094.,M,04.9,N,*67
$VWVHW,,,094.,M,04.9,N,*67
*4B
$GPGGA,101612.000,5512.0922,N,00952.6600,E,1,09,0.9,3.9,M,44.4,M,,0000*53
$GPGLL,5512.0922,N,00952.6600,E,101612.000,A,A*58
$VWVHW,,,,,5.54,N,10.26,K*7C
$GPGSA,A,3,09,12,04,14,27,17,25,02,29,,,,1.6,0.9,1.3*38
$SDDBT,59.1,f,18.0,M,9.9,F*02
$VWVLW,1753.8,N,274.52,N,,,,*42
$SDDPT,18.0,0.0,*42
$VWMTW,18.3,C*18
$VWMTW,18.3,C*18
!AIVDM,1,1,,A,13@ng7h01k0f0KnOQ=O`36Kp0`7V,0*18
$VWMTW,18.3,C*18
!AIVDM,1,1,,A,13@ng7h01k0f0KnOQ=O`36Kp0`7V,0*18
!AIVDM,1,1,,B,D025bvh5hDfr<`D00AdT0000000,2*7C
$IIHDM,335.,M*17
$HEHDT,335.,T*1A
$HEHDT,335.,T*1A
*47
$GPGGA,101613.000,5512.0934,N,00952.6588,E,1,09,0.9,4.0,M,44.4,M,,0000*58
$GPGLL,5512.0934,N,00952.6588,E,101613.000,A,A*5D
$IIVHW,,,335.,M,,,,*1F
$GPGSA,A,3,09,12,04,14,27,17,25,02,29,,,,1.6,0.9,1.3*38
$SDDBT,59.6,f,18.2,M,9.9,F*07
$VWVHW,,,,,5.52,N,10.23,K*7F
$IIHSC,,,332.,M*09
$GPRMC,101613.000,A,5512.0934,N,00952.6588,E,5.02,330.67,110812,,,A*67
$SDDPT,18.2,0.0,*40
$VWVLW,1753.8,N,274.52,N,,,,*42
$IIGLL,5512.08,N,00952.66,E*79
$VWMTW,18.3,C*18
$IIVTG,,,094.,M,04.9,N,,*46
$VWVHW,,,094.,M,04.9,N,*67
$VWVHW,,,094.,M,04.9,N,*67
*4B
$GPGGA,101614.000,5512.0946,N,00952.6576,E,1,09,0.9,3.9,M,44.4,M,,0000*55
$GPGGA,101614.000,5512.0946,N,00952.6576,E,1,09,0.9,3.9,M,44.4,M,,0000*55
!AIVDM,1,1,,B,B39b6gP08P;5M97pntt<SwW5oP06,0*46
$VWVHW,,,,,5.56,N,10.29,K*71
$GPGSA,A,3,09,12,04,14,27,17,25,02,29,,,,1.6,0.9,1.3*38
$SDDBT,59.7,f,18.2,M,10.0,F*37
$VWVLW,1753.8,N,274.52,N,,,,*42
$SDDPT,18.2,0.0,*40
$VWMTW,18.3,C*18
$GPGGA,101615.000,5512.0958,N,00952.6564,E,1,09,0.9,3.9,M,44.4,M,,0000*58
$IIHDM,334.,M*16
$HEHDT,334.,T*1B
$HEHDT,334.,T*1B
*45
$HEHDT,334.,T*1B
*45
!AIVDM,1,1,,A,139JIS?0000dMMvOWhSWP@bL05A0,0*5E
$GPGLL,5512.0958,N,00952.6564,E,101615.000,A,A*53
$VWVHW,,,,,5.58,N,10.34,K*73
$IIVHW,,,334.,M,,,,*1E
$GPGSA,A,3,09,12,04,14,27,17,25,02,29,,,,1.6,0.9,1.3*38
$SDDBT,59.7,f,18.2,M,10.0,F*37
$VWVLW,1754.3,N,274.52,N,,,,*4E
$IIHSC,,,332.,M*09
$GPGSV,3,3,12,29,06,199,24,32,06,350,,15,,178,34,22,,267,25*78
$SDDPT,18.2,0.0,*40
$VWMTW,18.3,C*18
$IIGLL,5512.09,N,00952.65,E*7B
$IIVTG,,,094.,M,04.9,N,,*46
$VWVHW,,,094.,M,04.9,N,*67
$VWVHW,,,094.,M,04.9,N,*67
*4B
$GPGGA,101616.000,5512.0970,N,00952.6552,E,1,09,1.1,3.9,M,44.4,M,,0000*5D
$GPGLL,5512.0970,N,00952.6552,E,101616.000,A,A*5F
$VWVHW,,,,,5.63,N,10.43,K*7B
$GPRMC,101616.000,A,5512.0970,N,00952.6552,E,4.95,330.99,110812,,,A*6B
$SDDBT,59.5,f,18.1,M,9.9,F*07
$VWVLW,1754.3,N,274.52,N,,,,*4E
$SDDPT,18.1,0.0,*43
$VWMTW,18.3,C*18
$GPGGA,101617.000,5512.0982,N,00952.6540,E,1,09,1.1,4.0,M,44.4,M,,0000*5C
$IIHDM,334.,M*16
$HEHDT,334.,T*1B
$HEHDT,334.,T*1B
*45
$GPGLL,5512.0982,N,00952.6540,E,101617.000,A,A*50
$GPGSA,A,3,09,12,04,14,32,27,17,25,02,,,,2.0,1.1,1.7*3A
$VWVHW,,,,,5.62,N,10.40,K*79
$IIVHW,,,333.,M,,,,*19
$GPRMC,101617.000,A,5512.0982,N,00952.6540,E,5.00,330.73,110812,,,A*6D
$SDDBT,59.3,f,18.1,M,9.9,F*01
$VWVLW,1754.3,N,274.53,N,,,,*4F
$IIHSC,,,332.,M*09
$SDDPT,18.1,0.0,*43
$VWMTW,18.3,C*18
$IIGLL,5512.09,N,00952.65,E*7B
$IIVTG,,,094.,M,04.9,N,,*46
$VWVHW,,,094.,M,04.9,N,*67
$VWVHW,,,094.,M,04.9,N,*67
*4B
$GPGGA,101618.000,5512.0994,N,00952.6528,E,1,09,1.1,4.0,M,44.4,M,,0000*5A
$GPGGA,101618.000,5512.0994,N,00952.6528,E,1,09,1.1,4.0,M,44.4,M,,0000*5A
!AIVDM,1,1,,A,13@ng7P0280ekKFONtl0o0dV0L0V,0*5D
$VWVHW,,,,,5.65,N,10.46,K*78
$GPGSA,A,3,09,12,04,14,32,27,17,25,02,,,,2.0,1.1,1.7*3A
$SDDBT,59.9,f,18.3,M,10.0,F*38
$VWVLW,1754.3,N,274.53,N,,,,*4F
$GPVTG,331.18,T,,M,5.00,N,9.3,K,A*0A
$SDDPT,18.3,0.0,*41
$VWMTW,18.3,C*18
$VWMTW,18.3,C*18
!AIVDM,1,1,,A,33aaG`0uB@0dspdOWbpp9VLT`000,0*28
$GPGGA,101619.000,5512.1006,N,00952.6516,E,1,09,1.1,4.0,M,44.4,M,,0000*55
$GPGGA,101619.000,5512.1006,N,00952.6516,E,1,09,1.1,4.0,M,44.4,M,,0000*55
!AIVDM,1,1,,A,D025bw1RpDfr<`D01sDT0000000,2*4B
$IIHDM,333.,M*11
$GPGLL,5512.1006,N,00952.6516,E,101619.000,A,A*59
$VWVHW,,,,,5.62,N,10.41,K*78
$HEHDT,333.,T*1C
$HEHDT,333.,T*1C
*43
$GPGSA,A,3,09,12,04,14,32,27,17,25,02,,,,2.0,1.1,1.7*3A
$SDDBT,60.8,f,18.5,M,10.1,F*34
$VWVLW,1754.3,N,274.53,N,,,,*4F
$IIVHW,,,334.,M,,,,*1E
$IIVHW,,,334.,M,,,,*1E
!AIVDO,1,1,,A,B3aJHa00<P;CLr7qHfs>owaUkP06,0*49
$SDDPT,18.5,0.0,*47
$VWMTW,18.3,C*18
$IIHSC,,,332.,M*09
$IIGLL,5512.09,N,00952.65,E*7B
$IIVTG,,,094.,M,05.0,N,,*4E
$IIVTG,,,094.,M,05.0,N,,*4E
!AIVDM,1,1,,A,D025btiQdDfr<`D01rhT0000000,2*2A
$VWVHW,,,094.,M,05.0,N,*6F
$VWVHW,,,094.,M,05.0,N,*6F
*32
$GPGGA,101620.000,5512.1018,N,00952.6504,E,1,08,1.2,4.0,M,44.4,M,,0000*51
$VWVHW,,,,,5.63,N,10.43,K*7B
$GPGSV,3,1,12,12,81,251,47,09,50,135,45,14,41,292,43,27,40,134,44*74
$SDDBT,61.0,f,18.6,M,10.2,F*3D
$VWVLW,1754.3,N,274.53,N,,,,*4F
$GPGSV,3,3,12,29,06,199,15,32,06,350,20,15,,178,34,22,,267,26*7B
$SDDPT,18.6,0.0,*44
$VWMTW,18.3,C*18
$GPGGA,101621.000,5512.1030,N,00952.6492,E,1,08,1.2,4.0,M,44.4,M,,0000*54
$GPGLL,5512.1030,N,00952.6492,E,101621.000,A,A*5A
$GPGSA,A,3,09,12,04,14,27,17,25,02,,,,,2.2,1.2,1.9*34
$VWVHW,,,,,5.63,N,10.43,K*7B
$IIHDM,333.,M*11
$IIHDM,333.,M*11
!AIVDM,1,1,,A,4025bw1uj5b@D0cOknOnoP100<1>,0*48
$SDDBT,60.9,f,18.6,M,10.2,F*35
$VWVLW,1754.3,N,274.54,N,,,,*48
$HEHDT,333.,T*1C
$HEHDT,333.,T*1C
*43
$HEHDT,333.,T*1C
*43
!AIVDM,1,1,,A,4025btiuj5b@E0cf`>OLrmQ00L3C,0*0D
$SDDPT,18.6,0.0,*44
$VWMTW,18.3,C*18
$IIVHW,,,333.,M,,,,*19
$IIHSC,,,332.,M*09
$IIGLL,5512.09,N,00952.65,E*7B
$IIGLL,5512.09,N,00952.65,E*7B
!AIVDM,1,1,,B,13@ng7h01k0f0DdOQ<O`36Kp0l0P,0*12
$IIVTG,,,094.,M,05.0,N,,*4E
$GPGGA,101622.000,5512.1042,N,00952.6480,E,1,09,0.9,4.0,M,44.4,M,,0000*5A
$VWVHW,,,,,5.60,N,10.38,K*74
$GPGSA,A,3,09,12,04,14,27,17,25,02,29,,,,1.6,0.9,1.3*38
$SDDBT,60.9,f,18.6,M,10.2,F*35
$VWVLW,1754.3,N,274.54,N,,,,*48
$SDDPT,18.6,0.0,*44
$VWMTW,18.3,C*18
$VWMTW,18.3,C*18
!AIVDM,1,1,,B,33@ng@wOiF0dO;hOWgms0HRh00sA,0*62
$GPGGA,101623.000,5512.1054,N,00952.6468,E,1,10,0.8,4.0,M,44.4,M,,0000*53
$GPGLL,5512.1054,N,00952.6468,E,101623.000,A,A*5F
$IIHDM,334.,M*16
$HEHDT,334.,T*1B
$HEHDT,334.,T*1B
*45
$GPGSA,A,3,09,12,04,14,32,27,17,25,02,29,,,1.4,0.8,1.2*3B
$VWVHW,,,,,5.60,N,10.38,K*74
$IIVHW,,,334.,M,,,,*1E
$GPRMC,101623.000,A,5512.1054,N,00952.6468,E,4.95,330.78,110812,,,A*64
$SDDBT,61.2,f,18.7,M,10.2,F*3E
$VWVLW,1754.3,N,274.54,N,,,,*48
$IIHSC,,,332.,M*09
$IIHSC,,,332.,M*09
!AIVDM,1,1,,A,B3@o:hP07@;7<:7qCJ`;owcUkP06,0*30
$SDDPT,18.7,0.0,*45
$VWMTW,18.3,C*18
$IIGLL,5512.09,N,00952.65,E*7B
$IIVTG,,,094.,M,05.0,N,,*4E
$GPGGA,101624.000,5512.1066,N,00952.6456,E,1,10,0.8,3.9,M,44.4,M,,0000*56
$VWVHW,,,094.,M,05.0,N,*6F
$VWVHW,,,094.,M,05.0,N,*6F
*32
$GPGLL,5512.1066,N,00952.6456,E,101624.000,A,A*54
$SDDBT,61.5,f,18.7,M,10.3,F*38
$VWVHW,,,,,5.59,N,10.35,K*73
$GPVTG,331.23,T,,M,4.96,N,9.2,K,A*0D
$SDDPT,18.7,0.0,*45
$VWVLW,1754.3,N,274.54,N,,,,*48
$VWMTW,18.3,C*18
$GPGGA,101625.000,5512.1078,N,00952.6444,E,1,10,0.8,3.9,M,44.4,M,,0000*5B
$GPGLL,5512.1078,N,00952.6444,E,101625.000,A,A*59
$GPGLL,5512.1078,N,00952.6444,E,101625.000,A,A*59
!AIVDM,1,1,,B,13@ngtgP000eAA0O`3fScgvj0L0@,0*75
$GPGSA,A,3,09,12,04,14,32,27,17,25,02,29,,,1.4,0.8,1.2*3B
$VWVHW,,,,,5.64,N,10.44,K*7B
$IIHDM,334.,M*16
$IIHDM,334.,M*16
!AIVDM,1,1,,A,4025bviuj5b@H0hUfJOO9g100@?1,0*18
$SDDBT,61.1,f,18.6,M,10.2,F*3C
$VWVLW,1754.3,N,274.54,N,,,,*48
$HEHDT,334.,T*1B
$HEHDT,334.,T*1B
*45
$HEHDT,334.,T*1B
*45
!AIVDM,1,1,,B,139JIS?0000dMN6OWhTcSh`h05A0,0*20
$SDDPT,18.7,0.0,*45
$VWMTW,18.3,C*18
$IIVHW,,,334.,M,,,,*1E
$IIHSC,,,332.,M*09
$IIGLL,5512.10,N,00952.64,E*72
$IIVTG,,,094.,M,04.9,N,,*46
$GPGGA,101626.000,5512.1090,N,00952.6432,E,1,10,0.8,3.9,M,44.4,M,,0000*5F
$VWVHW,,,094.,M,04.9,N,*67
$VWVHW,,,094.,M,04.9,N,*67
*4B
$GPGLL,5512.1090,N,00952.6432,E,101626.000,A,A*5D
$SDDBT,61.2,f,18.7,M,10.2,F*3E
$VWVHW,,,,,5.64,N,10.44,K*7B
$GPVTG,331.94,T,,M,5.00,N,9.3,K,A*0E
$SDDPT,18.7,0.0,*45
$VWVLW,1754.3,N,274.54,N,,,,*48
$VWMTW,18.3,C*18
$GPGGA,101627.000,5512.1102,N,00952.6421,E,1,10,0.8,3.9,M,44.4,M,,0000*56
$GPGLL,5512.1102,N,00952.6421,E,101627.000,A,A*54
$GPGSA,A,3,09,12,04,14,32,27,17,25,02,29,,,1.4,0.8,1.2*3B
$VWVHW,,,,,5.65,N,10.46,K*78
$IIHDM,333.,M*11
$GPRMC,101627.000,A,5512.1102,N,00952.6421,E,5.04,332.05,110812,,,A*6E
$SDDBT,61.0,f,18.6,M,10.2,F*3D
$VWVLW,1754.3,N,274.55,N,,,,*49
$HEHDT,333.,T*1C
$HEHDT,333.,T*1C
*43
$HEHDT,333.,T*1C
*43
!AIVDO,1,1,,,B3aJHa00<P;CL:WqHls?SweUkP06,0*13
$SDDPT,18.6,0.0,*44
$VWMTW,18.3,C*18
$IIVHW,,,333.,M,,,,*19
$IIHSC,,,332.,M*09
$IIGLL,5512.10,N,00952.64,E*72
$IIGLL,5512.10,N,00952.64,E*72
!AIVDM,1,1,,A,D025bviGLDfr<`D01FpT0000000,2*3A
$IIVTG,,,094.,M,05.0,N,,*4E
$GPGGA,101628.000,5512.1114,N,00952.6409,E,1,09,0.9,3.9,M,44.4,M,,0000*5D
$VWVHW,,,,,5.62,N,10.40,K*79
$VWVHW,,,094.,M,05.0,N,*6F
$VWVHW,,,094.,M,05.0,N,*6F
*32
$GPGSA,A,3,09,12,04,14,27,17,25,02,29,,,,1.6,0.9,1.3*38
$SDDBT,60.4,f,18.4,M,10.1,F*39
$VWVLW,1754.3,N,274.55,N,,,,*49
$SDDPT,18.4,0.0,*46
$VWMTW,18.3,C*18
$VWMTW,18.3,C*18
!AIVDM,1,1,,B,13aaG`002A0dsgTOWaa`7FJn`0SL,0*05
$VWMTW,18.3,C*18
!AIVDM,1,1,,B,13aaG`002A0dsgTOWaa`7FJn`0SL,0*05
!AIVDM,1,1,,A,B39F8K00@P;8L4WqVGqm7wf5oP06,0*31
$GPGGA,101629.000,5512.1126,N,00952.6397,E,1,09,0.9,3.9,M,44.4,M,,0000*5D
$GPGLL,5512.1126,N,00952.6397,E,101629.000,A,A*56
$GPGSA,A,3,09,12,04,14,27,17,25,02,29,,,,1.6,0.9,1.3*38
$VWVHW,,,,,5.62,N,10.40,K*79
$IIHDM,334.,M*16
$GPRMC,101629.000,A,5512.1126,N,00952.6397,E,5.01,331.19,110812,,,A*67
$SDDBT,60.4,f,18.4,M,10.1,F*39
$VWVLW,1754.3,N,274.55,N,,,,*49
$HEHDT,334.,T*1B
$HEHDT,334.,T*1B
*45
$SDDPT,18.4,0.0,*46
$VWMTW,18.3,C*18
$IIVHW,,,334.,M,,,,*1E
$IIHSC,,,332.,M*09
$IIGLL,5512.11,N,00952.64,E*73
$IIVTG,,,094.,M,05.0,N,,*4E
$VWVHW,,,094.,M,05.0,N,*6F
$VWVHW,,,094.,M,05.0,N,*6F
*32
$GPGGA,101630.000,5512.1138,N,00952.6385,E,1,09,0.9,4.0,M,44.4,M,,0000*57
$VWVHW,,,,,5.60,N,10.37,K*7B
$GPGSA,A,3,09,12,04,14,27,17,25,02,29,,,,1.6,0.9,1.3*38
$SDDBT,60.7,f,18.5,M,10.1,F*3B
$VWVLW,1754.3,N,274.55,N,,,,*49
$GPGSV,3,3,12,29,06,199,23,32,06,350,,15,,178,27,22,,267,33*7A
$SDDPT,18.5,0.0,*47
$VWMTW,18.3,C*18
$GPGGA,101631.000,5512.1150,N,00952.6373,E,1,09,0.9,4.0,M,44.4,M,,0000*51
$GPGLL,5512.1150,N,00952.6373,E,101631.000,A,A*54
$GPGLL,5512.1150,N,00952.6373,E,101631.000,A,A*54
!AIVDM,1,1,,A,B3@oRBh05H;<bIWrBmCAOwgUoP06,0*5A
$GPGSA,A,3,09,12,04,14,27,17,25,02,29,,,,1.6,0.9,1.3*38
$VWVHW,,,,,5.59,N,10.35,K*73
$IIHDM,333.,M*11
$IIHDM,333.,M*11
!AIVDM,1,1,,B,4025bw1uj5b@N0cOkpOnoSi00<1>,0*04
$SDDBT,61.4,f,18.7,M,10.2,F*38
$VWVLW,1754.3,N,274.55,N,,,,*49
$HEHDT,333.,T*1C
$HEHDT,333.,T*1C
*43
$HEHDT,333.,T*1C
*43
!AIVDM,1,1,,B,4025btiuj5b@O0cf`@OLrnA00L3C,0*69
$SDDPT,18.7,0.0,*45
$VWMTW,18.3,C*18
$IIVHW,,,333.,M,,,,*19
$IIHSC,,,332.,M*09
$IIHSC,,,332.,M*09
!AIVDM,1,1,,A,13@ng7h01k0f0<tOQ;F836Kp0`Bs,0*72
$IIGLL,5512.11,N,00952.63,E*74
$GPGGA,101632.000,5512.1161,N,00952.6361,E,1,09,0.9,4.0,M,44.4,M,,0000*53
$VWVHW,,,,,5.53,N,10.25,K*78
$IIVTG,,,094.,M,05.0,N,,*4E
$GPGSA,A,3,09,12,04,14,27,17,25,02,29,,,,1.6,0.9,1.3*38
$SDDBT,61.9,f,18.9,M,10.3,F*3A
$VWVLW,1754.3,N,274.55,N,,,,*49
$VWVHW,,,094.,M,05.0,N,*6F
$VWVHW,,,094.,M,05.0,N,*6F
*32
$SDDPT,18.9,0.0,*4B
$VWMTW,18.3,C*18
$GPGGA,101633.000,5512.1173,N,00952.6349,E,1,09,0.9,4.0,M,44.4,M,,0000*5B
$GPGLL,5512.1173,N,00952.6349,E,101633.000,A,A*5E
$GPGSA,A,3,09,12,04,14,27,17,25,02,29,,,,1.6,0.9,1.3*38
$VWVHW,,,,,5.56,N,10.29,K*71
$GPRMC,101633.000,A,5512.1173,N,00952.6349,E,4.98,330.48,110812,,,A*6B
$SDDBT,61.5,f,18.7,M,10.3,F*38
$VWVLW,1754.3,N,274.55,N,,,,*49
$IIHDM,333.,M*11
$IIHDM,333.,M*11
!AIVDO,1,1,,,B3aJHa00<@;CKVWqHqG>SwhUkP06,0*4D
$SDDPT,18.7,0.0,*45
$VWMTW,18.3,C*18
$HEHDT,333.,T*1C
$HEHDT,333.,T*1C
*43
$IIVHW,,,333.,M,,,,*19
$IIHSC,,,332.,M*09
$IIGLL,5512.11,N,00952.63,E*74
$IIVTG,,,094.,M,05.0,N,,*4E
$GPGGA,101634.000,5512.1185,N,00952.6337,E,1,09,0.9,4.0,M,44.4,M,,0000*5C
$GPGLL,5512.1185,N,00952.6337,E,101634.000,A,A*59
$VWVHW,,,,,5.55,N,10.28,K*73
$GPGSA,A,3,09,12,04,14,27,17,25,02,29,,,,1.6,0.9,1.3*38
$SDDBT,61.3,f,18.7,M,10.2,F*3F
$VWVLW,1754.3,N,274.56,N,,,,*4A
$SDDPT,18.7,0.0,*45
$VWMTW,18.3,C*18
$VWMTW,18.3,C*18
!AIVDM,1,1,,A,139JIS?0000dMN>OWhUdcPa400T8,0*60
$GPGGA,101635.000,5512.1197,N,00952.6325,E,1,09,0.9,3.9,M,44.4,M,,0000*53
$GPGLL,5512.1197,N,00952.6325,E,101635.000,A,A*58
$GPGSA,A,3,09,12,04,14,27,17,25,02,29,,,,1.6,0.9,1.3*38
$VWVHW,,,,,5.60,N,10.38,K*74
$VWVHW,,,,,5.60,N,10.38,K*74
!AIVDM,1,1,,B,4025bviuj5b@R0hUfNOO9di00@Dp,0*64
$SDDBT,61.4,f,18.7,M,10.2,F*38
$VWVLW,1754.3,N,274.56,N,,,,*4A
$IIHDM,333.,M*11
$GPGSV,3,2,12,25,38,255,39,04,21,083,41,17,14,041,40,02,12,121,43*70
$SDDPT,18.7,0.0,*45
$VWMTW,18.3,C*18
$HEHDT,333.,T*1C
$HEHDT,333.,T*1C
*43
$IIVHW,,,333.,M,,,,*19
$IIHSC,,,332.,M*09
$IIGLL,5512.11,N,00952.63,E*74
$IIVTG,,,094.,M,05.0,N,,*4E
$VWVHW,,,094.,M,05.0,N,*6F
$VWVHW,,,094.,M,05.0,N,*6F
*32
$GPGGA,101636.000,5512.1209,N,00952.6313,E,1,09,0.9,3.9,M,44.4,M,,0000*51
$VWVHW,,,,,5.60,N,10.38,K*74
$GPGSA,A,3,09,12,04,14,27,17,25,02,29,,,,1.6,0.9,1.3*38
$SDDBT,61.3,f,18.7,M,10.2,F*3F
$VWVLW,1754.3,N,274.56,N,,,,*4A
$SDDPT,18.7,0.0,*45
$VWMTW,18.3,C*18
$VWMTW,18.3,C*18
!AIVDM,1,1,,B,33@ng@wOiF0dNs0OWh2rr8a:0000,0*43
$GPGGA,101637.000,5512.1221,N,00952.6301,E,1,09,0.9,3.9,M,44.4,M,,0000*59
$GPGLL,5512.1221,N,00952.6301,E,101637.000,A,A*52
$GPGLL,5512.1221,N,00952.6301,E,101637.000,A,A*52
!AIVDM,1,1,,B,13@nfphOi`Pdw1LOWP5`rG9<05A0,0*56
$GPGSA,A,3,09,12,04,14,27,17,25,02,29,,,,1.6,0.9,1.3*38
$VWVHW,,,,,5.62,N,10.40,K*79
$GPRMC,101637.000,A,5512.1221,N,00952.6301,E,5.04,330.11,110812,,,A*6F
$SDDBT,61.2,f,18.7,M,10.2,F*3E
$VWVLW,1754.3,N,274.56,N,,,,*4A
$IIHDM,332.,M*10
$IIHDM,332.,M*10
!AIVDM,1,1,,A,13@ng7P0280ekbDONwGPo0g<0<0V,0*27
$SDDPT,18.7,0.0,*45
$VWMTW,18.3,C*18
$HEHDT,332.,T*1D
$HEHDT,332.,T*1D
*45
$IIVHW,,,332.,M,,,,*18
$IIHSC,,,332.,M*09
$IIGLL,5512.11,N,00952.63,E*74
$IIVTG,,,094.,M,05.0,N,,*4E
$GPGGA,101638.000,5512.1233,N,00952.6288,E,1,08,1.2,3.9,M,44.4,M,,0000*5E
$VWVHW,,,,,5.55,N,10.28,K*73
$GPGLL,5512.1233,N,00952.6288,E,101638.000,A,A*5E
$SDDBT,61.3,f,18.7,M,10.2,F*3F
$VWVLW,1754.3,N,274.56,N,,,,*4A
$SDDPT,18.7,0.0,*45
$VWMTW,18.3,C*18
$GPGGA,101639.000,5512.1245,N,00952.6275,E,1,09,1.1,3.9,M,44.4,M,,0000*5E
$GPGLL,5512.1245,N,00952.6275,E,101639.000,A,A*5C
$GPGSA,A,3,09,12,04,14,32,27,17,25,02,,,,2.1,1.1,1.7*3B
$GPGSA,A,3,09,12,04,14,32,27,17,25,02,,,,2.1,1.1,1.7*3B
!AIVDM,2,1,8,B,53aaG`0284f10Pl6221<E8Dpv222222222222216;H<6:64:0>0DliCTp888,0*00
$VWVHW,,,,,5.52,N,10.22,K*7E
$IIHDM,331.,M*13
$IIHDM,331.,M*13
!AIVDM,2,2,8,B,88888888880,2*2F
$SDDBT,61.8,f,18.8,M,10.3,F*3A
$VWVLW,1754.3,N,274.56,N,,,,*4A
$HEHDT,331.,T*1E
$HEHDT,331.,T*1E
*47
$SDDPT,18.8,0.0,*4A
$VWMTW,18.3,C*18
$IIVHW,,,331.,M,,,,*1B
$IIHSC,,,332.,M*09
$IIGLL,5512.12,N,00952.63,E*77
$IIVTG,,,094.,M,05.0,N,,*4E
$GPGGA,101640.000,5512.1256,N,00952.6263,E,1,09,1.1,3.9,M,44.4,M,,0000*55
$GPGLL,5512.1256,N,00952.6263,E,101640.000,A,A*57
$VWVHW,,,,,5.59,N,10.35,K*73
$GPGSA,A,3,09,12,04,14,32,27,17,25,02,,,,2.1,1.1,1.7*3B
$SDDBT,62.6,f,19.1,M,10.4,F*38
$VWVLW,1754.3,N,274.56,N,,,,*4A
$GPGSV,3,2,12,25,38,255,38,04,21,083,42,17,14,041,40,02,12,121,43*72
$SDDPT,19.1,0.0,*42
$VWMTW,18.3,C*18
$VWMTW,18.3,C*18
!AIVDM,1,1,,B,13aaG`002B0dsSPOWWvp66K>`<0c,0*67
$GPGGA,101641.000,5512.1268,N,00952.6249,E,1,10,0.8,3.9,M,44.4,M,,0000*51
$GPGLL,5512.1268,N,00952.6249,E,101641.000,A,A*53
$GPGSA,A,3,09,12,04,14,32,27,17,25,02,29,,,1.4,0.8,1.2*3B
$VWVHW,,,,,5.62,N,10.40,K*79
$VWVHW,,,,,5.62,N,10.40,K*79
!AIVDM,1,1,,A,4025bw1uj5b@`0cOkLOnoN100<1?,0*51
$SDDBT,62.2,f,19.0,M,10.4,F*3D
$VWVLW,1754.3,N,274.57,N,,,,*4B
$IIHDM,331.,M*13
$SDDPT,19.0,0.0,*43
$VWMTW,18.3,C*18
$HEHDT,331.,T*1E
$HEHDT,331.,T*1E
*47
$HEHDT,331.,T*1E
*47
!AIVDM,1,1,,A,4025btiuj5b@a0cf`@OLrnA00L3E,0*42
$IIVHW,,,331.,M,,,,*1B
$IIHSC,,,332.,M*09
$IIGLL,5512.12,N,00952.63,E*77
$IIVTG,,,094.,M,05.0,N,,*4E
$GPGGA,101642.000,5512.1279,N,00952.6236,E,1,10,0.8,3.9,M,44.4,M,,0000*5A
$VWVHW,,,,,5.62,N,10.40,K*79
$GPGLL,5512.1279,N,00952.6236,E,101642.000,A,A*58
$SDDBT,61.2,f,18.7,M,10.2,F*3E
$VWVLW,1754.3,N,274.57,N,,,,*4B
$GPVTG,326.97,T,,M,5.03,N,9.3,K,A*08
$SDDPT,18.7,0.0,*45
$VWMTW,18.3,C*18
$VWMTW,18.3,C*18
!AIVDM,1,1,,B,13@ng7h01k0f04>OQ:7H36Ip0`I=,0*74
$VWMTW,18.3,C*18
!AIVDM,1,1,,B,13@ng7h01k0f04>OQ:7H36Ip0`I=,0*74
!AIVDM,1,1,,B,33@ng@w01F0dNkBOWh8bqHcH00u1,0*53
$GPGGA,101643.000,5512.1291,N,00952.6223,E,1,10,0.8,3.9,M,44.4,M,,0000*59
$GPGLL,5512.1291,N,00952.6223,E,101643.000,A,A*5B
$GPGSA,A,3,09,12,04,14,32,27,17,25,02,29,,,1.4,0.8,1.2*3B
$VWVHW,,,,,5.58,N,10.34,K*73
$GPRMC,101643.000,A,5512.1291,N,00952.6223,E,4.98,326.11,110812,,,A*65
$SDDBT,61.1,f,18.6,M,10.2,F*3C
$VWVLW,1754.3,N,274.57,N,,,,*4B
$IIHDM,330.,M*12
$SDDPT,18.6,0.0,*44
$VWMTW,18.3,C*18
$HEHDT,330.,T*1F
$HEHDT,330.,T*1F
*45
$IIVHW,,,330.,M,,,,*1A
$IIHSC,,,332.,M*09
$IIGLL,5512.12,N,00952.62,E*76
$IIVTG,,,094.,M,05.0,N,,*4E
$GPGGA,101644.000,5512.1302,N,00952.6209,E,1,10,0.8,3.8,M,44.4,M,,0000*5C
$GPGLL,5512.1302,N,00952.6209,E,101644.000,A,A*5F
$VWVHW,,,,,5.54,N,10.26,K*7C
$GPGSA,A,3,09,12,04,14,32,27,17,25,02,29,,,1.4,0.8,1.2*3B
$SDDBT,61.1,f,18.6,M,10.2,F*3C
$VWVLW,1754.3,N,274.57,N,,,,*4B
$VWVLW,1754.3,N,274.57,N,,,,*4B
!AIVDM,1,1,,B,E>j>n4@;a2QUh92S@27;hJItP000I8f8?htc800000N01000000000000000,0*55
$SDDPT,18.6,0.0,*44
$VWMTW,18.3,C*18
$GPGGA,101645.000,5512.1313,N,00952.6195,E,1,10,0.8,3.8,M,44.4,M,,0000*5B
$GPGLL,5512.1313,N,00952.6195,E,101645.000,A,A*58
$GPGSA,A,3,09,12,04,14,32,27,17,25,02,29,,,1.4,0.8,1.2*3B
$VWVHW,,,,,5.57,N,10.31,K*79
$VWVHW,,,,,5.57,N,10.31,K*79
!AIVDM,1,1,,A,4025bviuj5b@d0hUfHOO9cQ00@Jg,0*71
$SDDBT,61.0,f,18.6,M,10.2,F*3D
$VWVLW,1754.3,N,274.57,N,,,,*4B
$IIHDM,331.,M*13
$GPGSV,3,2,12,25,38,255,39,04,21,083,41,17,14,041,38,02,12,121,43*7F
$SDDPT,18.6,0.0,*44
$VWMTW,18.3,C*18
$HEHDT,331.,T*1E
$HEHDT,331.,T*1E
*47
$IIVHW,,,331.,M,,,,*1B
$IIHSC,,,332.,M*09
$IIGLL,5512.12,N,00952.62,E*76
$IIVTG,,,094.,M,05.0,N,,*4E
$GPGGA,101646.000,5512.1324,N,00952.6182,E,1,09,1.1,3.8,M,44.4,M,,0000*5A
$VWVHW,,,,,5.56,N,10.29,K*71
$VWVHW,,,094.,M,05.0,N,*6F
$VWVHW,,,094.,M,05.0,N,*6F
*32
$GPGLL,5512.1324,N,00952.6182,E,101646.000,A,A*59
$SDDBT,61.7,f,18.8,M,10.3,F*35
$VWVLW,1754.3,N,274.57,N,,,,*4B
$VWVLW,1754.3,N,274.57,N,,,,*4B
!AIVDM,1,1,,A,33@ng@w01F0dNf>OWh=bqHcN0000,0*66
$SDDPT,18.8,0.0,*4A
$VWMTW,18.3,C*18
$VWMTW,18.3,C*18
!AIVDM,1,1,,B,139JIS?0000dMN>OWhUpKhgL08Kd,0*52
$GPGGA,101647.000,5512.1336,N,00952.6169,E,1,10,0.8,3.8,M,44.4,M,,0000*5D
$GPGLL,5512.1336,N,00952.6169,E,101647.000,A,A*5E
$GPGSA,A,3,09,12,04,14,32,27,17,25,02,29,,,1.4,0.8,1.2*3B
$VWVHW,,,,,5.55,N,10.28,K*73
$GPRMC,101647.000,A,5512.1336,N,00952.6169,E,4.97,326.64,110812,,,A*6D
$SDDBT,61.8,f,18.8,M,10.3,F*3A
$VWVLW,1754.3,N,274.57,N,,,,*4B
$IIHDM,330.,M*12
$IIHDM,330.,M*12
!AIVDM,1,1,,B,13@ng7P0280ekjvOO0p0o0gP05A0,0*7D
$SDDPT,18.8,0.0,*4A
$VWMTW,18.3,C*18
$HEHDT,330.,T*1F
$HEHDT,330.,T*1F
*45
$HEHDT,330.,T*1F
*45
!AIVDM,1,1,,A,13aaG`0uBB0dsLROWVwp4VKL`5A0,0*77
$IIVHW,,,330.,M,,,,*1A
$IIHSC,,,332.,M*09
$GPGGA,101648.000,5512.1347,N,00952.6155,E,1,10,0.8,3.8,M,44.4,M,,0000*5B
$VWVHW,,,,,5.54,N,10.26,K*7C
$IIGLL,5512.13,N,00952.61,E*74
$GPGLL,5512.1347,N,00952.6155,E,101648.000,A,A*58
$SDDBT,61.0,f,18.6,M,10.2,F*3D
$VWVLW,1754.3,N,274.58,N,,,,*44
$IIVTG,,,094.,M,05.0,N,,*4E
$SDDPT,18.6,0.0,*44
$VWMTW,18.3,C*18
$GPGGA,101649.000,5512.1358,N,00952.6141,E,1,10,0.8,3.8,M,44.4,M,,0000*51
$GPGLL,5512.1358,N,00952.6141,E,101649.000,A,A*52
$GPGSA,A,3,09,12,04,14,32,27,17,25,02,29,,,1.4,0.8,1.2*3B
$VWVHW,,,,,5.53,N,10.25,K*78
$GPRMC,101649.000,A,5512.1358,N,00952.6141,E,4.98,326.49,110812,,,A*61
$SDDBT,60.8,f,18.5,M,10.1,F*34
$VWVLW,1754.3,N,274.58,N,,,,*44
$IIHDM,331.,M*13
$IIHDM,331.,M*13
!AIVDO,1,1,,,B3aJHa00<@;CIvWqI4s<3wpUkP06,0*65
$SDDPT,18.5,0.0,*47
$VWMTW,18.3,C*18
$HEHDT,331.,T*1E
$HEHDT,331.,T*1E
*47
$IIVHW,,,331.,M,,,,*1B
$IIHSC,,,332.,M*09
$IIGLL,5512.13,N,00952.61,E*74
$IIVTG,,,094.,M,05.0,N,,*4E
$GPGGA,101650.000,5512.1370,N,00952.6128,E,1,10,0.8,3.8,M,44.4,M,,0000*5C
$GPGLL,5512.1370,N,00952.6128,E,101650.000,A,A*5F
$VWVHW,,,,,5.53,N,10.25,K*78
$GPGSA,A,3,09,12,04,14,32,27,17,25,02,29,,,1.4,0.8,1.2*3B
$SDDBT,60.8,f,18.5,M,10.1,F*34
$VWVLW,1754.3,N,274.58,N,,,,*44
$GPGSV,3,2,12,25,38,255,39,04,21,083,40,17,14,041,37,02,12,121,44*76
$SDDPT,18.5,0.0,*47
$VWMTW,18.3,C*18
$GPGGA,101651.000,5512.1382,N,00952.6115,E,1,10,0.8,3.8,M,44.4,M,,0000*5E
$GPGLL,5512.1382,N,00952.6115,E,101651.000,A,A*5D
$GPGSA,A,3,09,12,04,14,32,27,17,25,02,29,,,1.4,0.8,1.2*3B
$VWVHW,,,,,5.53,N,10.25,K*78
$VWVHW,,,,,5.53,N,10.25,K*78
!AIVDM,1,1,,B,4025bw1uj5b@k0cOk:OnoJi00<1@,0*0C
$SDDBT,60.7,f,18.5,M,10.1,F*3B
$VWVLW,1754.3,N,274.58,N,,,,*44
$VWVLW,1754.3,N,274.58,N,,,,*44
!AIVDO,1,1,,,B3aJHa00<P;CIiWqI6K=CwqUkP06,0*20
$SDDPT,18.5,0.0,*47
$VWMTW,18.3,C*18
$IIHDM,332.,M*10
$IIHDM,332.,M*10
!AIVDM,1,1,,B,4025btiuj5b@k0cf`@OLroA00L3G,0*48
$HEHDT,332.,T*1D
$HEHDT,332.,T*1D
*45
$IIVHW,,,331.,M,,,,*1B
$IIHSC,,,332.,M*09
$IIGLL,5512.13,N,00952.61,E*74
$IIVTG,,,094.,M,05.0,N,,*4E
$GPGGA,101652.000,5512.1393,N,00952.6102,E,1,09,1.1,3.9,M,44.4,M,,0000*5A
$VWVHW,,,,,5.51,N,10.20,K*7F
$GPGLL,5512.1393,N,00952.6102,E,101652.000,A,A*58
$SDDBT,60.5,f,18.4,M,10.1,F*38
$VWVLW,1754.3,N,274.58,N,,,,*44
$SDDPT,18.4,0.0,*46
$VWMTW,18.3,C*18
$VWMTW,18.3,C*18
!AIVDM,1,1,,A,13@ng7h01k0ewtDOQ8w836Ip0d0P,0*2B
$VWMTW,18.3,C*18
!AIVDM,1,1,,A,13@ng7h01k0ewtDOQ8w836Ip0d0P,0*2B
!AIVDM,1,1,,B,13aaG`0uBB0dsGbOWVB`3VIV`HO9,0*0F
$GPGGA,101653.000,5512.1405,N,00952.6089,E,1,09,1.1,3.9,M,44.4,M,,0000*51
$GPGGA,101653.000,5512.1405,N,00952.6089,E,1,09,1.1,3.9,M,44.4,M,,0000*51
!AIVDM,1,1,,A,13@ng@w01F0dNU`OWhH:p`ad05A0,0*51
$GPGLL,5512.1405,N,00952.6089,E,101653.000,A,A*53
$GPGSA,A,3,09,12,04,14,32,27,17,25,02,,,,2.1,1.1,1.7*3B
$VWVHW,,,,,5.56,N,10.29,K*71
$GPRMC,101653.000,A,5512.1405,N,00952.6089,E,5.05,328.04,110812,,,A*62
$SDDBT,60.6,f,18.5,M,10.1,F*3A
$VWVLW,1754.3,N,274.58,N,,,,*44
$IIHDM,331.,M*13
$SDDPT,18.5,0.0,*47
$VWMTW,18.3,C*18
$HEHDT,331.,T*1E
$HEHDT,331.,T*1E
*47
$IIVHW,,,331.,M,,,,*1B
$IIHSC,,,332.,M*09
$IIGLL,5512.14,N,00952.60,E*72
$GPGGA,101654.000,5512.1416,N,00952.6076,E,1,10,0.8,3.9,M,44.4,M,,0000*54
$IIVTG,,,094.,M,05.0,N,,*4E
$GPGLL,5512.1416,N,00952.6076,E,101654.000,A,A*56
$VWVHW,,,,,5.53,N,10.25,K*78
$GPRMC,101654.000,A,5512.1416,N,00952.6076,E,4.99,327.62,110812,,,A*6C
$SDDBT,60.4,f,18.4,M,10.1,F*39
$VWVLW,1754.3,N,274.58,N,,,,*44
$SDDPT,18.3,0.0,*41
$VWMTW,18.3,C*18
$VWMTW,18.3,C*18
!AIVDM,1,1,,A,13@ngtgP000eA@dO`3i3cgwf0@PL,0*21
$GPGGA,101655.000,5512.1428,N,00952.6063,E,1,10,0.8,3.8,M,44.4,M,,0000*5D
$GPGLL,5512.1428,N,00952.6063,E,101655.000,A,A*5E
$GPGSA,A,3,09,12,04,14,32,27,17,25,02,29,,,1.4,0.8,1.2*3B
$VWVHW,,,,,5.53,N,10.25,K*78
$VWVHW,,,,,5.53,N,10.25,K*78
!AIVDM,1,1,,B,4025bviuj5b@n0hUfPOO9ci00@PV,0*73
$SDDBT,59.9,f,18.3,M,10.0,F*38
$VWVLW,1754.3,N,274.59,N,,,,*45
$GPGSV,3,2,12,25,38,255,39,04,21,083,41,17,14,041,37,02,12,121,44*77
$SDDPT,18.3,0.0,*41
$VWMTW,18.3,C*18
$IIHDM,329.,M*1A
$GPVTG,326.81,T,,M,5.00,N,9.3,K,A*0C
$HEHDT,329.,T*17
$HEHDT,329.,T*17
*3C
$IIVHW,,,330.,M,,,,*1A
$IIHSC,,,332.,M*09
$IIGLL,5512.14,N,00952.60,E*72
$GPGGA,101656.000,5512.1439,N,00952.6049,E,1,10,0.8,3.8,M,44.4,M,,0000*56
$VWVHW,,,,,5.54,N,10.26,K*7C
$IIVTG,,,094.,M,05.0,N,,*4E
$GPGLL,5512.1439,N,00952.6049,E,101656.000,A,A*55
$SDDBT,60.0,f,18.3,M,10.0,F*3B
$VWVLW,1754.3,N,274.59,N,,,,*45
$VWVHW,,,094.,M,05.0,N,*6F
$VWVHW,,,094.,M,05.0,N,*6F
*32
$SDDPT,18.3,0.0,*41
$VWMTW,18.3,C*18
$VWMTW,18.3,C*18
!AIVDM,1,1,,A,13@ng7P0280ekr:OO26Po0el0<0W,0*2F
$GPGGA,101657.000,5512.1450,N,00952.6035,E,1,10,0.8,3.8,M,44.4,M,,0000*53
$GPGLL,5512.1450,N,00952.6035,E,101657.000,A,A*50
$GPGLL,5512.1450,N,00952.6035,E,101657.000,A,A*50
!AIVDM,1,1,,B,B3@o:hP07@;7=1WqCc0=gwtUkP06,0*39
$VWVHW,,,,,5.57,N,10.31,K*79
$GPGSA,A,3,09,12,04,14,32,27,17,25,02,29,,,1.4,0.8,1.2*3B
$SDDBT,60.2,f,18.3,M,10.0,F*39
$VWVLW,1754.3,N,274.59,N,,,,*45
$GPVTG,325.42,T,,M,4.95,N,9.2,K,A*0C
$SDDPT,18.3,0.0,*41
$VWMTW,18.3,C*18
$IIHDM,330.,M*12
$IIHDM,330.,M*12
!AIVDM,1,1,,A,13@oVr800m0d;uHOOOa3h35j0D0J,0*3F
$HEHDT,330.,T*1F
$HEHDT,330.,T*1F
*45
$IIVHW,,,330.,M,,,,*1A
$IIHSC,,,332.,M*09
$IIGLL,5512.14,N,00952.60,E*72
$GPGGA,101658.000,5512.1462,N,00952.6022,E,1,10,0.8,3.8,M,44.4,M,,0000*5B
$IIVTG,,,094.,M,04.9,N,,*46
$GPGLL,5512.1462,N,00952.6022,E,101658.000,A,A*58
$SDDBT,60.4,f,18.4,M,10.1,F*39
$VWVHW,,,,,5.57,N,10.32,K*7A
$VWVHW,,,,,5.57,N,10.32,K*7A
!AIVDO,1,1,,,B3aJHa00<@;CI37qI;K;Gwu5kP06,0*61
$SDDPT,18.4,0.0,*46
$VWVLW,1754.3,N,274.59,N,,,,*45
$VWMTW,18.3,C*18
$VWMTW,18.3,C*18
!AIVDM,1,1,,A,13aaG`002A0dsApOWULH2nIj`HRb,0*48
$GPGGA,101659.000,5512.1473,N,00952.6008,E,1,10,0.8,3.8,M,44.4,M,,0000*52
$GPGLL,5512.1473,N,00952.6008,E,101659.000,A,A*51
$GPGSA,A,3,09,12,04,14,32,27,17,25,02,29,,,1.4,0.8,1.2*3B
$VWVHW,,,,,5.59,N,10.35,K*73
$GPRMC,101659.000,A,5512.1473,N,00952.6008,E,4.95,325.80,110812,,,A*69
$SDDBT,60.1,f,18.3,M,10.0,F*3A
$VWVLW,1754.3,N,274.60,N,,,,*4F
$SDDPT,18.3,0.0,*41
$VWMTW,18.3,C*18
$IIHDM,329.,M*1A
$HEHDT,329.,T*17
$HEHDT,329.,T*17
*3C
$IIVHW,,,329.,M,,,,*12
$IIHSC,,,332.,M*09
$IIGLL,5512.14,N,00952.60,E*72
$GPGGA,101700.000,5512.1484,N,00952.5994,E,1,10,0.8,3.8,M,44.4,M,,0000*58
$GPGLL,5512.1484,N,00952.5994,E,101700.000,A,A*5B
$IIVTG,,,094.,M,04.9,N,,*46
$GPGSA,A,3,09,12,04,14,32,27,17,25,02,29,,,1.4,0.8,1.2*3B
$SDDBT,59.2,f,18.0,M,9.9,F*01
$VWVHW,,,,,5.62,N,10.40,K*79
$VWVHW,,,094.,M,04.9,N,*67
$VWVHW,,,094.,M,04.9,N,*67
*4B
$GPGSV,3,1,12,12,81,251,47,09,50,135,44,14,41,292,47,27,40,134,38*7A
$SDDPT,18.0,0.0,*42
$VWVLW,1754.3,N,274.60,N,,,,*4F
$VWMTW,18.3,C*18
$GPGGA,101701.000,5512.1495,N,00952.5980,E,1,10,0.8,3.8,M,44.4,M,,0000*5C
$GPGLL,5512.1495,N,00952.5980,E,101701.000,A,A*5F
$GPGSA,A,3,09,12,04,14,32,27,17,25,02,29,,,1.4,0.8,1.2*3B
$VWVHW,,,,,5.57,N,10.32,K*7A
$VWVHW,,,,,5.57,N,10.32,K*7A
!AIVDM,1,1,,A,4025bw1uj5bA00cOjrOnoKi0080u,0*2D
$SDDBT,59.3,f,18.1,M,9.9,F*01
$VWVLW,1754.3,N,274.60,N,,,,*4F
$VWVLW,1754.3,N,274.60,N,,,,*4F
!AIVDM,1,1,,B,B3@oRBh058;<aC7rBvg@swPUoP06,0*75
$SDDPT,18.1,0.0,*43
$VWMTW,18.3,C*18
$IIHDM,330.,M*12
$IIHDM,330.,M*12
!AIVDM,1,1,,A,4025btiuj5bA10cf`DOLroA00H1<,0*69
$HEHDT,330.,T*1F
$HEHDT,330.,T*1F
*45
$IIVHW,,,330.,M,,,,*1A
$IIHSC,,,332.,M*09
$IIGLL,5512.14,N,00952.60,E*72
$GPGGA,101702.000,5512.1506,N,00952.5966,E,1,10,0.8,3.8,M,44.4,M,,0000*5C
$VWVHW,,,,,5.54,N,10.26,K*7C
$IIVTG,,,094.,M,04.9,N,,*46
$GPGLL,5512.1506,N,00952.5966,E,101702.000,A,A*5F
$SDDBT,59.7,f,18.2,M,10.0,F*37
$VWVLW,1754.3,N,274.60,N,,,,*4F
$VWVHW,,,094.,M,04.9,N,*67
$VWVHW,,,094.,M,04.9,N,*67
*4B
$VWVHW,,,094.,M,04.9,N,*67
*4B
!AIVDM,1,1,,B,13@ng@wPAF0dNIVOWhDbmHL20<0G,0*7D
$SDDPT,18.2,0.0,*40
$VWMTW,18.3,C*18
$VWMTW,18.3,C*18
!AIVDM,1,1,,B,13@ng7h01k0ewlJOQ7np36Kp0W3h,0*6A
$GPGGA,101703.000,5512.1517,N,00952.5952,E,1,10,0.8,3.8,M,44.4,M,,0000*5A
$GPGLL,5512.1517,N,00952.5952,E,101703.000,A,A*59
$GPGSA,A,3,09,12,04,14,32,27,17,25,02,29,,,1.4,0.8,1.2*3B
$VWVHW,,,,,5.49,N,10.17,K*72
$GPRMC,101703.000,A,5512.1517,N,00952.5952,E,4.92,325.29,110812,,,A*65
$SDDBT,59.6,f,18.2,M,9.9,F*07
$VWVLW,1754.3,N,274.60,N,,,,*4F
$SDDPT,18.2,0.0,*40
$VWMTW,18.3,C*18
$IIHDM,331.,M*13
$HEHDT,331.,T*1E
$HEHDT,331.,T*1E
*47
$IIVHW,,,331.,M,,,,*1B
$IIHSC,,,332.,M*09
$GPGGA,101704.000,5512.1528,N,00952.5938,E,1,10,0.8,3.7,M,44.4,M,,0000*52
$IIGLL,5512.15,N,00952.59,E*79
$GPGLL,5512.1528,N,00952.5938,E,101704.000,A,A*5E
$VWVHW,,,,,5.53,N,10.25,K*78
$IIVTG,,,094.,M,04.9,N,,*46
$GPGSA,A,3,09,12,04,14,32,27,17,25,02,29,,,1.4,0.8,1.2*3B
$SDDBT,59.0,f,18.0,M,9.8,F*02
$VWVLW,1754.3,N,274.60,N,,,,*4F
$VWVHW,,,094.,M,04.9,N,*67
$VWVHW,,,094.,M,04.9,N,*67
*4B
$VWVHW,,,094.,M,04.9,N,*67
*4B
!AIVDM,1,1,,B,13aaG`02jC0ds<:OWTVH26J6`@2s,0*41
$SDDPT,18.0,0.0,*42
$VWMTW,18.3,C*18
$GPGGA,101705.000,5512.1539,N,00952.5924,E,1,10,0.8,3.7,M,44.4,M,,0000*5E
$GPGLL,5512.1539,N,00952.5924,E,101705.000,A,A*52
$GPGSA,A,3,09,12,04,14,32,27,17,25,02,29,,,1.4,0.8,1.2*3B
$VWVHW,,,,,5.52,N,10.22,K*7E
$VWVHW,,,,,5.52,N,10.22,K*7E
!AIVDM,1,1,,A,4025bviuj5bA40hUffOO9dQ00<2o,0*05
$SDDBT,59.1,f,18.0,M,9.9,F*02
$VWVLW,1754.3,N,274.60,N,,,,*4F
$GPGSV,3,2,12,25,38,255,40,04,21,083,42,17,14,041,37,02,12,121,44*7A
$SDDPT,18.0,0.0,*42
$VWMTW,18.3,C*18
$IIHDM,330.,M*12
$IIHDM,330.,M*12
!AIVDM,1,1,,B,13@ngtgP000eA@dO`3i3cgv<0L0@,0*19
$HEHDT,330.,T*1F
$HEHDT,330.,T*1F
*45
$IIVHW,,,330.,M,,,,*1A
$IIHSC,,,332.,M*09
$GPGGA,101706.000,5512.1550,N,00952.5910,E,1,10,0.8,3.7,M,44.4,M,,0000*55
$VWVHW,,,,,5.52,N,10.23,K*7F
$IIGLL,5512.15,N,00952.59,E*79
$GPGLL,5512.1550,N,00952.5910,E,101706.000,A,A*59
$SDDBT,59.6,f,18.2,M,9.9,F*07
$VWVLW,1754.3,N,274.61,N,,,,*4E
$IIVTG,,,094.,M,04.9,N,,*46
$SDDPT,18.2,0.0,*40
$VWMTW,18.3,C*18
$VWVHW,,,094.,M,04.9,N,*67
$VWVHW,,,094.,M,04.9,N,*67
*4B
$GPGGA,101707.000,5512.1561,N,00952.5896,E,1,10,0.8,3.7,M,44.4,M,,0000*59
$GPGLL,5512.1561,N,00952.5896,E,101707.000,A,A*55
$GPGLL,5512.1561,N,00952.5896,E,101707.000,A,A*55
!AIVDM,1,1,,B,13@ng7P0280el22OO3M@o0d@0<0W,0*24
$GPGSA,A,3,09,12,04,14,32,27,17,25,02,29,,,1.4,0.8,1.2*3B
$VWVHW,,,,,5.55,N,10.28,K*73
$GPRMC,101707.000,A,5512.1561,N,00952.5896,E,4.98,325.72,110812,,,A*6D
$SDDBT,59.5,f,18.1,M,9.9,F*07
$VWVLW,1754.3,N,274.61,N,,,,*4E
$SDDPT,18.1,0.0,*43
$VWMTW,18.3,C*18
$IIHDM,331.,M*13
$HEHDT,331.,T*1E
$HEHDT,331.,T*1E
*47
$IIVHW,,,331.,M,,,,*1B
$IIHSC,,,332.,M*09
$GPGGA,101708.000,5512.1573,N,00952.5883,E,1,09,1.1,3.7,M,44.4,M,,0000*51
$GPGLL,5512.1573,N,00952.5883,E,101708.000,A,A*5D
$IIGLL,5512.15,N,00952.58,E*78
$GPGSA,A,3,09,12,04,14,32,27,17,25,02,,,,2.1,1.1,1.7*3B
$SDDBT,59.0,f,18.0,M,9.8,F*02
$VWVHW,,,,,5.54,N,10.26,K*7C
$IIVTG,,,094.,M,04.9,N,,*46
$GPRMC,101708.000,A,5512.1573,N,00952.5883,E,4.95,325.66,110812,,,A*6D
$SDDPT,18.0,0.0,*42
$VWVLW,1754.3,N,274.61,N,,,,*4E
$VWVHW,,,094.,M,04.9,N,*67
$VWVHW,,,094.,M,04.9,N,*67
*4B
$VWVHW,,,094.,M,04.9,N,*67
*4B
!AIVDM,1,1,,A,13@nfphPAWPdvLvOWMWHlFvB0H5A,0*12
$VWMTW,18.3,C*18
$GPGGA,101709.000,5512.1584,N,00952.5869,E,1,10,0.8,3.7,M,44.4,M,,0000*5C
$GPGLL,5512.1584,N,00952.5869,E,101709.000,A,A*50
$VWVHW,,,,,5.53,N,10.25,K*78
$GPGSA,A,3,09,12,04,14,32,27,17,25,02,29,,,1.4,0.8,1.2*3B
$SDDBT,59.3,f,18.1,M,9.9,F*01
$VWVLW,1754.3,N,274.61,N,,,,*4E
$SDDPT,18.1,0.0,*43
$VWMTW,18.3,C*18
$IIHDM,331.,M*13
$HEHDT,331.,T*1E
$HEHDT,331.,T*1E
*47
$IIVHW,,,331.,M,,,,*1B
$GPGGA,101710.000,5512.1595,N,00952.5856,E,1,09,1.1,3.7,M,44.4,M,,0000*58
$IIHSC,,,332.,M*09
$GPGLL,5512.1595,N,00952.5856,E,101710.000,A,A*54
$GPGSA,A,3,09,12,04,14,32,27,17,25,02,,,,2.1,1.1,1.7*3B
$VWVHW,,,,,5.52,N,10.22,K*7E
$IIGLL,5512.15,N,00952.58,E*78
$GPGSV,3,1,12,12,81,251,47,09,50,135,43,14,41,292,47,27,40,134,39*7C
$SDDBT,59.8,f,18.2,M,10.0,F*38
$VWVLW,1754.3,N,274.61,N,,,,*4E
$IIVTG,,,094.,M,04.9,N,,*46
$GPGSV,3,3,12,29,06,199,22,32,06,350,31,15,,178,27,22,,267,29*72
$SDDPT,18.3,0.0,*41
$VWMTW,18.3,C*18
$VWVHW,,,094.,M,04.9,N,*67
$VWVHW,,,094.,M,04.9,N,*67
*4B
$GPGGA,101711.000,5512.1606,N,00952.5843,E,1,09,1.1,3.8,M,44.4,M,,0000*5B
$GPGLL,5512.1606,N,00952.5843,E,101711.000,A,A*58
$VWVHW,,,,,5.55,N,10.28,K*73
$GPGSA,A,3,09,12,04,14,32,27,17,25,02,,,,2.1,1.1,1.7*3B
$SDDBT,59.7,f,18.2,M,10.0,F*37
$VWVLW,1754.3,N,274.61,N,,,,*4E
$SDDPT,18.2,0.0,*40
$VWMTW,18.3,C*18
$VWMTW,18.3,C*18
!AIVDM,1,1,,A,13aaG`002A0ds5POWS`H2nJD`0S3,0*33
$IIHDM,332.,M*10
$HEHDT,332.,T*1D
$HEHDT,332.,T*1D
*45
$IIVHW,,,332.,M,,,,*18
$GPGGA,101712.000,5512.1618,N,00952.5829,E,1,10,0.8,3.7,M,44.4,M,,0000*54
$IIHSC,,,332.,M*09
$GPGLL,5512.1618,N,00952.5829,E,101712.000,A,A*58
$IIGLL,5512.15,N,00952.58,E*78
$IIGLL,5512.15,N,00952.58,E*78
!AIVDM,1,1,,A,33@ng@wPAE0dN:nOWh8bdHDF0191,0*4F
$SDDBT,58.7,f,17.9,M,9.8,F*02
$VWVHW,,,,,5.49,N,10.17,K*72
$IIVTG,,,094.,M,04.9,N,,*46
$GPRMC,101712.000,A,5512.1618,N,00952.5829,E,4.86,326.99,110812,,,A*69
$SDDPT,17.8,0.0,*45
$VWVLW,1754.3,N,274.61,N,,,,*4E
$VWVHW,,,094.,M,04.9,N,*67
$VWVHW,,,094.,M,04.9,N,*67
*4B
$VWVHW,,,094.,M,04.9,N,*67
*4B
!AIVDM,1,1,,B,D025bvh5hDfr<`D00AdT0000000,2*7C
$VWMTW,18.3,C*18
$GPGGA,101713.000,5512.1629,N,00952.5817,E,1,10,0.8,3.8,M,44.4,M,,0000*55
$GPGLL,5512.1629,N,00952.5817,E,101713.000,A,A*56
$VWVHW,,,,,5.54,N,10.26,K*7C
$GPRMC,101713.000,A,5512.1629,N,00952.5817,E,4.99,328.50,110812,,,A*62
$SDDBT,58.4,f,17.8,M,9.7,F*0F
$VWVLW,1754.3,N,274.62,N,,,,*4D
$SDDPT,17.8,0.0,*45
$VWMTW,18.3,C*18
$IIHDM,331.,M*13
$HEHDT,331.,T*1E
$HEHDT,331.,T*1E
*47
$IIVHW,,,331.,M,,,,*1B
$GPGGA,101714.000,5512.1641,N,00952.5804,E,1,10,0.8,3.7,M,44.4,M,,0000*51
$IIHSC,,,332.,M*09
$GPGLL,5512.1641,N,00952.5804,E,101714.000,A,A*5D
$GPGSA,A,3,09,12,04,14,32,27,17,25,02,29,,,1.4,0.8,1.2*3B
$VWVHW,,,,,5.51,N,10.20,K*7F
$IIGLL,5512.16,N,00952.58,E*7B
$IIGLL,5512.16,N,00952.58,E*7B
!AIVDM,1,1,,A,13@ngtgP000eAA0O`3kScgvN0@8U,0*4E
$SDDBT,58.5,f,17.8,M,9.8,F*01
$VWVLW,1754.3,N,274.62,N,,,,*4D
$IIVTG,,,094.,M,04.9,N,,*46
$SDDPT,17.8,0.0,*45
$VWMTW,18.3,C*18
$VWVHW,,,094.,M,04.9,N,*67
$VWVHW,,,094.,M,04.9,N,*67
*4B
$GPGGA,101715.000,5512.1652,N,00952.5792,E,1,10,0.8,3.8,M,44.4,M,,0000*5D
$GPGGA,101715.000,5512.1652,N,00952.5792,E,1,10,0.8,3.8,M,44.4,M,,0000*5D
!AIVDM,1,1,,A,139JIS?0000dMN>OWhU7E0lL00T4,0*0C
$GPGLL,5512.1652,N,00952.5792,E,101715.000,A,A*5E
$VWVHW,,,,,5.53,N,10.25,K*78
$GPGSA,A,3,09,12,04,14,32,27,17,25,02,29,,,1.4,0.8,1.2*3B
$SDDBT,58.0,f,17.7,M,9.7,F*04
$VWVLW,1754.3,N,274.62,N,,,,*4D
$GPGSV,3,2,12,25,38,255,39,04,21,083,41,17,14,041,39,02,12,121,44*79
$SDDPT,17.7,0.0,*4A
$VWMTW,18.3,C*18
$GPVTG,329.31,T,,M,5.05,N,9.4,K,A*0A
$IIHDM,334.,M*16
$HEHDT,334.,T*1B
$HEHDT,334.,T*1B
*45
$IIVHW,,,334.,M,,,,*1E
$GPGGA,101716.000,5512.1664,N,00952.5779,E,1,10,0.8,3.8,M,44.4,M,,0000*5E
$GPGLL,5512.1664,N,00952.5779,E,101716.000,A,A*5D
$VWVHW,,,,,5.51,N,10.20,K*7F
$IIHSC,,,332.,M*09
$GPGSA,A,3,09,12,04,14,32,27,17,25,02,29,,,1.4,0.8,1.2*3B
$SDDBT,57.3,f,17.5,M,9.6,F*0B
$VWVLW,1754.3,N,274.62,N,,,,*4D
$IIGLL,5512.16,N,00952.58,E*7B
$SDDPT,17.5,0.0,*48
$VWMTW,18.3,C*18
$IIVTG,,,094.,M,05.0,N,,*4E
$IIVTG,,,094.,M,05.0,N,,*4E
!AIVDM,1,1,,B,B39b6gP07h;5OmWpoNH<Kw`5oP06,0*6F
$VWVHW,,,094.,M,05.0,N,*6F
$VWVHW,,,094.,M,05.0,N,*6F
*32
$GPGGA,101717.000,5512.1676,N,00952.5767,E,1,10,0.8,3.8,M,44.4,M,,0000*53
$GPGLL,5512.1676,N,00952.5767,E,101717.000,A,A*50
$VWVHW,,,,,5.55,N,10.28,K*73
$GPGSA,A,3,09,12,04,14,32,27,17,25,02,29,,,1.4,0.8,1.2*3B
$SDDBT,57.0,f,17.4,M,9.5,F*0A
$VWVLW,1754.3,N,274.62,N,,,,*4D
$VWVLW,1754.3,N,274.62,N,,,,*4D
!AIVDM,1,1,,B,13aaG`002A0drwhOWRj82FJP`8:I,0*17
$SDDPT,17.4,0.0,*49
$VWMTW,18.3,C*18
$IIHDM,332.,M*10
$HEHDT,332.,T*1D
$HEHDT,332.,T*1D
*45
$IIVHW,,,332.,M,,,,*18
$GPGGA,101718.000,5512.1687,N,00952.5755,E,1,10,0.8,3.8,M,44.4,M,,0000*53
$GPGGA,101718.000,5512.1687,N,00952.5755,E,1,10,0.8,3.8,M,44.4,M,,0000*53
!AIVDM,1,1,,A,13@ng7P0280el:VOO4uho0dV0H:l,0*0F
$GPGLL,5512.1687,N,00952.5755,E,101718.000,A,A*50
$VWVHW,,,,,5.53,N,10.25,K*78
$IIHSC,,,332.,M*09
$GPGSA,A,3,09,12,04,14,32,27,17,25,02,29,,,1.4,0.8,1.2*3B
$SDDBT,58.4,f,17.8,M,9.7,F*0F
$VWVLW,1754.3,N,274.62,N,,,,*4D
$IIGLL,5512.16,N,00952.58,E*7B
$SDDPT,17.8,0.0,*45
$VWMTW,18.3,C*18
$IIVTG,,,094.,M,05.0,N,,*4E
$VWVHW,,,094.,M,05.0,N,*6F
$VWVHW,,,094.,M,05.0,N,*6F
*32
$VWVHW,,,094.,M,05.0,N,*6F
*32
!AIVDM,1,1,,B,13@nfphOi`PdvB8OWLk8hG2`0@;@,0*78
$GPGGA,101719.000,5512.1699,N,00952.5743,E,1,09,0.9,3.8,M,44.4,M,,0000*53
$GPGGA,101719.000,5512.1699,N,00952.5743,E,1,09,0.9,3.8,M,44.4,M,,0000*53
!AIVDM,1,1,,A,D025bw1RpDfr<`D01sDT0000000,2*4B
$VWVHW,,,,,5.57,N,10.31,K*79
$GPGSA,A,3,09,12,04,14,27,17,25,02,29,,,,1.6,0.9,1.3*38
$SDDBT,58.3,f,17.8,M,9.7,F*08
$VWVLW,1754.3,N,274.62,N,,,,*4D
$VWVLW,1754.3,N,274.62,N,,,,*4D
!AIVDO,1,1,,A,B3aJHa00<@;CFoWqIJ?>KwaUkP06,0*6B
$SDDPT,17.8,0.0,*45
$VWMTW,18.3,C*18
$IIHDM,334.,M*16
$HEHDT,334.,T*1B
$HEHDT,334.,T*1B
*45
$HEHDT,334.,T*1B
*45
!AIVDM,1,1,,A,33@ng@wPA?0dN20OWh?J``<b00uh,0*28
$HEHDT,334.,T*1B
*45
!AIVDM,1,1,,A,33@ng@wPA?0dN20OWh?J``<b00uh,0*28
!AIVDM,1,1,,A,D025btiQdDfr<`D01rhT0000000,2*2A
$IIVHW,,,334.,M,,,,*1E
$GPGGA,101720.000,5512.1711,N,00952.5731,E,1,09,0.9,3.8,M,44.4,M,,0000*5D
$VWVHW,,,,,5.52,N,10.23,K*7F
$IIHSC,,,332.,M*09
