$BGMTW,016,C*3A
$BGMWV,155,R,012.1,N,A*20
$BGMWV,149,T,010.8,N,A*20
$BGHDM,084,M*30
$BGVHW,,T,084,M,00.00,N,,K*47
$BGVPW,0.00,N,,M*4C
$BGVWR,155,R,012.1,N,006.2,M,,K*7E
$BGMWD,,T,233,M,010.8,N,005.5,M*7F
$BGVLW,8068.63,N,1765.49,N*46
$BGDBT,16.9,f,5.1,M,2.8,F*21
$BGVWT,149,R,010.8,N,005.5,M,,K*7A
$GPGSV,3,1,12,05,52,200,46,08,31,049,40,09,35,052,46,10,06,159,34*7E
$BGMWV,148,T,010.9,N,A*20
$GPGSV,3,1,12,05,52,200,46,08,31,049,42,09,35,052,46,10,06,159,32*7A
$BGHDM,084,M*30
$BGDBT,16.8,f,5.1,M,2.8,F*20
$BGMWV,154,R,012.2,N,A*22
$GPGSV,3,2,12,15,42,307,47,21,05,298,30,24,19,254,33,26,72,009,44*7D
$GPGSA,A,3,08,09,10,26,28,,,,,,,,2.3,1.3,1.9*37
$GPGSV,3,3,12,28,52,071,43,33,40,207,00,39,38,146,00,40,19,115,35*7A
$GPGSV,3,3,12,28,52,071,43,33,40,207,00,39,38,146,00,40,19,115,37*78
$GPVTG,,T,211.3,M,0.1,N,0.1,K,D*09
$GPGSV,3,3,12,28,52,071,44,33,40,207,00,39,38,146,00,40,19,115,36*7E
$GPGSA,A,3,08,09,10,26,28,,,,,,,,1.9,1.1,1.6*33
$GPVTG,,T,211.7,M,0.1,N,0.1,K,D*0D
$GPGGA,152944,3933.9603,N,00238.0995,E,2,05,1.9,6.3,M,,M,,*52
$GPVTG,,T,211.7,M,0.1,N,0.1,K,D*0D
$GPGSV,3,2,12,15,42,307,47,21,05,298,29,24,19,254,34,26,72,009,45*73
$GPGGA,152946,3933.9602,N,00238.0995,E,2,05,1.9,6.2,M,,M,,*50
$BGVWR,154,R,012.2,N,006.2,M,,K*7C
$GPGSV,3,2,12,15,42,307,45,21,05,298,29,24,19,254,36,26,72,009,44*72
$BGVWT,148,R,010.9,N,005.6,M,,K*79
$GPGSV,3,2,12,15,42,307,47,21,05,298,29,24,19,254,34,26,72,009,44*72
$BGVLW,8068.63,N,1765.49,N*46
$BGMTW,016,C*3A
$GPVTG,,T,211.3,M,0.1,N,0.1,K,D*09
$GPGSV,3,3,12,28,52,071,44,33,40,207,00,39,38,146,00,40,19,115,37*7F
$GPGGA,152943,3933.9602,N,00238.0995,E,2,05,1.9,6.4,M,,M,,*53
$GPGSA,A,3,08,09,10,26,28,,,,,,,,1.9,1.1,1.6*33
$GPGSV,3,2,12,15,42,307,45,21,05,298,29,24,19,254,35,26,72,009,45*70
$GPGSA,A,3,08,09,10,26,28,,,,,,,,1.9,1.1,1.6*33
$GPGSV,3,1,12,05,52,200,46,08,31,049,42,09,35,052,45,10,06,159,35*7E
$GPGGA,152945,3933.9603,N,00238.0995,E,2,05,1.9,6.3,M,,M,,*53
$GPGSV,3,3,12,28,52,071,44,33,40,207,00,39,38,146,00,40,19,115,37*7F
$BGVPW,0.00,N,,M*4C
$GPGSV,3,1,12,05,52,200,46,08,31,049,39,09,35,052,45,10,06,159,36*71
$GPGSA,A,3,08,09,10,26,28,,,,,,,,1.9,1.1,1.6*33
$GPGSV,3,1,12,05,52,200,47,08,31,049,39,09,35,052,46,10,06,159,38*7D
$GPGGA,152947,3933.9602,N,00238.0994,E,2,05,1.9,6.2,M,,M,,*50
$BGVHW,,T,084,M,00.00,N,,K*47
$GPVTG,,T,211.6,M,0.1,N,0.1,K,D*0C
$BGMWD,,T,232,M,010.9,N,005.6,M*7C
$GPGSV,3,3,12,28,52,071,43,33,40,207,00,39,38,146,00,40,19,115,36*79
$BGMTW,016,C*3A
$BGVWT,151,R,011.4,N,005.8,M,,K*73
$BGMTW,016,C*3A
$BGVWR,158,R,012.1,N,006.2,M,,K*73
$BGVHW,,T,084,M,00.00,N,,K*47
$BGMWD,,T,236,M,011.2,N,005.7,M*73
$BGVWT,153,R,011.2,N,005.7,M,,K*78
$BGDBT,16.8,f,5.1,M,2.8,F*20
$GPGSA,A,3,08,09,10,26,28,,,,,,,,1.9,1.1,1.6*33
$BGMWD,,T,235,M,011.4,N,005.8,M*79
$GPGSV,3,1,12,05,51,200,46,08,31,050,42,09,35,052,44,10,06,159,33*72
$GPGSV,3,3,12,28,52,071,43,33,40,207,00,39,38,146,00,40,19,115,36*79
$BGDBT,17.0,f,5.2,M,2.8,F*2A
$BGMWV,153,T,011.2,N,A*20
$GPGSA,A,3,08,09,10,26,28,,,,,,,,1.9,1.1,1.6*33
$BGHDM,083,M*37
$GPGSA,A,3,08,09,10,26,28,,,,,,,,1.9,1.1,1.6*33
$GPGGA,152948,3933.9602,N,00238.0994,E,2,05,1.9,6.1,M,,M,,*5C
$BGHDM,084,M*30
$BGVLW,8068.63,N,1765.49,N*46
$BGMWV,151,T,011.4,N,A*24
$BGMWD,,T,239,M,011.4,N,005.8,M*75
$GPVTG,,T,211.3,M,0.1,N,0.1,K,D*09
$BGVPW,0.00,N,,M*4C
$GPGGA,152949,3933.9602,N,00238.0994,E,2,05,1.9,6.0,M,,M,,*5C
$GPVTG,,T,211.2,M,0.1,N,0.1,K,D*08
$BGVLW,8068.63,N,1765.49,N*46
$BGVWR,157,R,012.6,N,006.4,M,,K*7D
$BGVWR,160,R,012.5,N,006.4,M,,K*7A
$BGMWV,160,R,012.5,N,A*22
$GPGSV,3,2,12,15,42,308,45,21,05,298,30,24,19,254,40,26,73,010,45*7C
$BGVLW,8068.63,N,1765.49,N*46
$BGMWV,159,R,012.4,N,A*29
$BGMTW,016,C*3A
$BGDBT,16.8,f,5.1,M,2.8,F*20
$BGVPW,0.00,N,,M*4C
$GPGGA,152950,3933.9602,N,00238.0995,E,2,05,1.9,6.0,M,,M,,*55
$GPVTG,,T,211.1,M,0.1,N,0.1,K,D*0B
$GPGSV,3,2,12,15,42,308,47,21,05,298,29,24,19,254,39,26,73,010,43*7E
$GPGSV,3,2,12,15,42,308,46,21,05,298,28,24,19,254,38,26,73,010,45*79
$GPGSV,3,3,12,28,52,071,42,33,40,207,00,39,38,146,00,40,19,115,36*78
$BGMWV,155,T,011.4,N,A*20
$GPGSV,3,1,12,05,51,200,47,08,31,050,41,09,35,052,45,10,06,159,34*76
$BGVPW,0.00,N,,M*4C
$BGHDM,083,M*37
$BGMWV,156,R,012.6,N,A*24
$GPGSV,3,1,12,05,51,200,45,08,31,050,40,09,35,052,46,10,06,159,32*70
$BGVHW,,T,083,M,00.00,N,,K*40
$BGVHW,,T,083,M,00.00,N,,K*40
$BGVWT,155,R,011.4,N,005.8,M,,K*77
$GPGSV,3,3,12,28,52,071,42,33,40,207,00,39,38,146,00,40,19,115,37*79
$BGVLW,8068.63,N,1765.49,N*46
$BGVWR,157,R,011.3,N,005.8,M,,K*74
$GPGSV,3,2,12,15,42,308,46,21,05,298,29,24,19,254,37,26,73,010,45*77
$GPGSV,3,2,12,15,42,308,47,21,05,298,28,24,19,254,36,26,73,010,44*77
$BGMWV,151,T,010.1,N,A*20
$GPVTG,,T,211.1,M,0.1,N,0.1,K,D*0B
$BGVWT,153,R,010.5,N,005.4,M,,K*7D
$BGVWT,151,R,010.1,N,005.2,M,,K*7D
$BGMTW,016,C*3A
$BGMWV,159,R,011.8,N,A*26
$GPGSV,3,1,12,05,51,200,47,08,31,050,43,09,35,052,43,10,06,159,36*70
$GPGSA,A,3,08,09,10,26,28,,,,,,,,1.9,1.1,1.6*33
$GPVTG,,T,211.1,M,0.1,N,0.1,K,D*0B
$BGDBT,17.0,f,5.2,M,2.8,F*2A
$BGVHW,,T,084,M,00.00,N,,K*47
$BGMWV,158,R,011.5,N,A*2A
$BGMTW,016,C*3A
$BGMWD,,T,237,M,010.5,N,005.4,M*77
$GPGSV,3,3,12,28,52,071,44,33,40,207,00,39,38,146,00,40,19,115,37*7F
$GPGSA,A,3,08,09,10,26,28,,,,,,,,1.9,1.1,1.6*33
$GPGSV,3,1,12,05,51,200,46,08,31,050,43,09,35,052,45,10,06,159,33*72
$GPVTG,,T,211.2,M,0.1,N,0.1,K,D*08
$BGHDM,084,M*30
$GPGSV,3,3,12,28,52,071,43,33,40,207,00,39,38,146,00,40,19,115,37*78
$BGVPW,0.00,N,,M*4C
$GPGSA,A,3,08,09,10,26,28,,,,,,,,1.9,1.1,1.6*33
$BGVPW,0.00,N,,M*4C
$GPGSV,3,2,12,15,42,308,47,21,05,298,29,24,19,254,36,26,73,010,44*76
$GPGSA,A,3,08,09,10,26,28,,,,,,,,1.9,1.1,1.6*33
$GPGGA,152951,3933.9602,N,00238.0996,E,2,05,1.9,5.9,M,,M,,*5D
$GPGSV,3,2,12,15,42,308,46,21,05,298,29,24,19,254,36,26,73,010,44*77
$BGVHW,,T,084,M,00.00,N,,K*47
$GPGSV,3,3,12,28,52,071,42,33,40,207,00,39,38,146,00,40,19,115,36*78
$GPGGA,152952,3933.9602,N,00238.0997,E,2,05,1.9,5.8,M,,M,,*5E
$GPGGA,152953,3933.9602,N,00238.0998,E,2,05,1.9,5.8,M,,M,,*50
$GPGSV,3,1,12,05,51,200,46,08,31,050,41,09,35,052,46,10,06,159,34*74
$GPVTG,,T,211.3,M,0.1,N,0.1,K,D*09
$BGHDM,084,M*30
$BGVWR,159,R,011.8,N,006.0,M,,K*7A
$GPGSA,A,3,08,09,10,26,28,,,,,,,,1.9,1.1,1.6*33
$BGVLW,8068.63,N,1765.49,N*46
$BGMWV,153,T,010.5,N,A*26
$BGDBT,16.9,f,5.1,M,2.8,F*21
$GPGGA,152954,3933.9602,N,00238.0999,E,2,05,1.9,5.7,M,,M,,*59
$GPGSV,3,3,12,28,52,071,43,33,40,207,00,39,38,146,00,40,19,115,37*78
$GPGSV,3,1,12,05,51,200,47,08,31,050,43,09,35,052,46,10,06,159,35*76
$BGMWD,,T,235,M,010.1,N,005.2,M*77
$BGDBT,17.1,f,5.2,M,2.8,F*2B
$GPGSV,3,3,12,28,52,071,41,33,40,207,00,39,38,146,00,40,19,115,39*74
$BGVWT,153,R,009.9,N,005.1,M,,K*7C
$GPGSV,3,2,12,15,42,308,46,21,05,298,32,24,19,254,38,26,73,010,42*75
$GPGSA,A,3,08,09,10,26,28,,,,,,,,1.9,1.1,1.6*33
$BGMWV,159,R,011.1,N,A*2F
$GPGSV,3,1,12,05,51,200,45,08,31,050,44,09,35,052,45,10,06,159,34*71
$BGVPW,0.00,N,,M*4C
$BGMWV,153,T,009.9,N,A*22
$BGMTW,016,C*3A
$GPGSV,3,2,12,15,42,308,47,21,05,298,29,24,19,254,36,26,73,010,43*71
$GPGSV,3,3,12,28,52,071,43,33,40,207,00,39,38,146,00,40,19,115,37*78
$BGDBT,17.0,f,5.2,M,2.8,F*2A
$BGVLW,8068.63,N,1765.49,N*46
$GPGSA,A,3,08,09,10,26,28,,,,,,,,1.9,1.1,1.6*33
$BGVWT,154,R,009.3,N,004.8,M,,K*79
$GPGGA,152958,3933.9599,N,00238.1003,E,2,05,1.9,5.4,M,,M,,*5C
$GPGSA,A,3,08,09,10,26,28,,,,,,,,1.9,1.1,1.6*33
$BGVLW,8068.63,N,1765.49,N*46
$GPGSV,3,1,12,05,51,200,47,08,31,050,42,09,35,052,45,10,06,159,29*79
$GPVTG,,T,208.4,M,0.1,N,0.1,K,D*06
$BGMWD,,T,238,M,009.9,N,005.1,M*79
$GPGSA,A,3,08,09,10,26,28,,,,,,,,1.9,1.1,1.6*33
$BGMWD,,T,239,M,009.3,N,004.8,M*7A
$GPGSV,3,2,12,15,42,308,46,21,05,298,30,24,19,254,38,26,73,010,42*77
$GPGSV,3,3,12,28,52,071,45,33,40,207,00,39,38,146,00,40,19,115,38*71
$BGMWV,160,R,010.5,N,A*20
$GPGSV,3,2,12,15,42,308,45,21,05,298,28,24,19,254,36,26,73,010,42*73
$BGHDM,085,M*31
$BGVPW,0.00,N,,M*4C
$BGMWV,154,T,009.3,N,A*2F
$GPGSV,3,1,12,05,51,200,47,08,31,050,43,09,35,052,45,10,06,159,34*74
$GPGSV,3,1,12,05,51,200,48,08,31,050,43,09,35,052,46,10,06,159,35*79
$BGVWR,160,R,010.4,N,005.3,M,,K*7D
$GPGSV,3,3,12,28,52,071,43,33,40,207,00,39,38,146,00,40,19,115,38*77
$GPGGA,152957,3933.9600,N,00238.1001,E,2,05,1.9,5.5,M,,M,,*53
$GPVTG,,T,208.2,M,0.1,N,0.1,K,D*00
$BGVHW,,T,085,M,00.00,N,,K*46
$GPVTG,,T,210.5,M,0.0,N,0.1,K,D*0F
$GPVTG,,T,210.8,M,0.1,N,0.1,K,D*03
$GPGGA,152955,3933.9601,N,00238.1000,E,2,05,1.9,5.7,M,,M,,*53
$GPGSA,A,3,08,09,10,26,28,,,,,,,,1.9,1.1,1.6*33
$GPGSV,3,2,12,15,42,308,45,21,05,298,30,24,19,254,39,26,73,010,43*74
$BGHDM,085,M*31
$GPGSV,3,3,12,28,52,071,45,33,40,207,00,39,38,146,00,40,19,115,39*70
$BGVHW,,T,085,M,00.00,N,,K*46
$BGMTW,016,C*3A
$GPGGA,152956,3933.9601,N,00238.1001,E,2,05,1.9,5.6,M,,M,,*50
$GPVTG,,T,210.5,M,0.1,N,0.1,K,D*0E
$BGVWR,160,R,010.9,N,005.6,M,,K*75
$GPGGA,152959,3933.9599,N,00238.1003,E,2,05,1.9,5.3,M,,M,,*5A
$GPGSV,3,1,12,05,51,200,47,08,31,050,41,09,35,052,46,10,06,159,33*72
$BGVHW,,T,085,M,00.00,N,,K*46
$GPGGA,153002,3933.9596,N,00238.1004,E,2,05,1.9,5.2,M,,M,,*55
$GPGSA,A,3,08,09,10,26,28,,,,,,,,1.9,1.1,1.6*33
$GPGSV,3,2,12,15,42,308,45,21,05,298,32,24,19,254,39,26,73,010,43*76
$GPGGA,153004,3933.9594,N,00238.1005,E,2,05,1.9,5.0,M,,M,,*52
$GPGSV,3,3,12,28,52,071,44,33,40,207,00,39,38,146,00,40,19,115,39*71
$GPGSV,3,2,12,15,42,308,46,21,05,298,30,24,19,254,37,26,73,010,41*7B
$GPVTG,,T,208.2,M,0.1,N,0.1,K,D*00
$GPGSV,3,1,12,05,51,200,46,08,31,050,43,09,35,052,46,10,06,159,31*73
$GPVTG,,T,208.0,M,0.0,N,0.1,K,D*03
$GPGGA,153005,3933.9593,N,00238.1005,E,2,05,1.9,4.9,M,,M,,*5C
$BGVWT,156,R,009.0,N,004.6,M,,K*76
$GPGSV,3,2,12,15,42,308,45,21,05,298,30,24,19,254,39,26,73,010,43*74
$GPVTG,,T,207.9,M,0.0,N,0.1,K,D*05
$GPGGA,153001,3933.9597,N,00238.1004,E,2,05,1.9,5.2,M,,M,,*57
$GPGSV,3,1,12,05,51,200,47,08,31,050,43,09,35,052,46,10,06,159,35*76
$BGVWR,167,R,010.0,N,005.1,M,,K*7C
$GPGSA,A,3,08,09,10,26,28,,,,,,,,1.9,1.1,1.6*33
$GPGSV,3,3,12,28,52,071,42,33,40,207,00,39,38,146,00,40,19,115,39*77
$BGMWV,156,T,009.0,N,A*2E
$GPGSV,3,2,12,15,42,308,45,21,05,298,30,24,19,254,39,26,73,010,41*76
$GPGGA,153006,3933.9589,N,00238.1004,E,2,04,2.5,4.8,M,,M,,*5A
$GPGGA,153000,3933.9598,N,00238.1004,E,2,05,1.9,5.3,M,,M,,*58
$GPGGA,153003,3933.9595,N,00238.1005,E,2,05,1.9,5.1,M,,M,,*55
$GPGSV,3,3,12,28,52,071,43,33,40,207,00,39,38,146,00,40,19,115,39*76
$GPGSA,A,3,08,09,10,26,28,,,,,,,,1.9,1.1,1.6*33
$GPVTG,,T,208.1,M,0.0,N,0.1,K,D*02
$GPGSV,3,1,12,05,51,200,47,08,31,050,44,09,35,052,44,10,06,159,31*77
$BGHDM,085,M*31
$BGMWD,,T,247,M,008.9,N,004.6,M*76
$BGMTW,016,C*3A
$BGVHW,,T,085,M,00.00,N,,K*46
$GPVTG,,T,208.0,M,0.0,N,0.1,K,D*03
$BGVWR,162,R,009.9,N,005.1,M,,K*78
$BGDBT,17.0,f,5.2,M,2.8,F*2A
$BGMWV,166,R,009.9,N,A*22
$GPGSV,3,2,12,15,42,308,47,21,05,298,33,24,19,254,37,26,73,010,42*7A
$BGVLW,8068.63,N,1765.49,N*46
$GPGSV,3,1,12,05,51,200,48,08,31,050,45,09,35,052,44,10,06,159,29*70
$BGDBT,17.0,f,5.2,M,2.8,F*2A
$GPGSV,3,2,12,15,42,308,45,21,05,298,31,24,19,254,39,26,73,010,43*75
$BGMWD,,T,241,M,009.0,N,004.6,M*78
$GPGSV,3,2,12,15,42,308,45,21,05,298,29,24,19,254,38,26,73,010,42*7C
$BGHDM,085,M*31
$GPGSA,A,3,08,09,10,26,28,,,,,,,,1.9,1.1,1.6*33
$BGVPW,0.00,N,,M*4C
$GPGSV,3,3,12,28,52,071,45,33,40,207,00,39,38,146,00,40,19,115,39*70
$GPVTG,,T,208.2,M,0.0,N,0.1,K,D*01
$GPGSA,A,3,08,09,10,26,28,,,,,,,,1.9,1.1,1.6*33
$BGMTW,016,C*3A
$GPGSV,3,1,12,05,51,200,47,08,31,050,42,09,35,052,45,10,06,159,31*70
$BGVWT,162,R,008.9,N,004.6,M,,K*79
$BGMWV,162,T,008.9,N,A*21
$GPGSA,A,3,08,09,10,26,28,,,,,,,,1.9,1.1,1.6*33
$GPGSV,3,3,12,28,52,071,43,33,40,207,00,39,38,146,00,40,19,115,39*76
$GPGSV,3,1,12,05,51,200,47,08,31,050,42,09,35,052,45,10,06,159,29*79
$BGMWV,162,R,010.0,N,A*27
$BGVLW,8068.63,N,1765.49,N*46
$GPVTG,,T,207.9,M,0.0,N,0.1,K,D*05
$BGVPW,0.00,N,,M*4C
$GPGSV,3,1,12,05,51,200,47,08,31,050,44,09,35,052,45,10,06,159,33*74
$GPGSV,3,3,12,28,52,071,43,33,40,207,00,39,38,146,00,40,19,115,39*76
$BGVPW,0.00,N,,M*4C
$GPVTG,,T,207.9,M,0.1,N,0.1,K,D*04
$BGDBT,17.0,f,5.2,M,2.8,F*2A
$GPGSA,A,3,08,09,10,26,28,,,,,,,,1.9,1.1,1.6*33
$BGHDM,085,M*31
$BGVLW,8068.63,N,1765.49,N*46
$BGVPW,0.00,N,,M*4C
$BGVHW,,T,085,M,00.00,N,,K*46
$GPGSA,A,3,08,09,26,28,,,,,,,,,2.5,1.4,2.1*3C
$GPGSV,3,3,12,28,52,071,43,33,40,207,00,39,38,146,00,40,19,115,37*78
$GPVTG,,T,207.9,M,0.0,N,0.1,K,D*05
$BGVWT,171,R,009.5,N,004.9,M,,K*79
$GPGSV,3,3,12,28,52,071,44,33,40,207,00,39,38,146,00,40,19,115,39*71
$GPGSA,A,3,08,09,26,28,,,,,,,,,2.5,1.4,2.1*3C
$BGVWR,172,R,010.0,N,005.1,M,,K*78
$GPGSV,3,2,12,15,42,308,45,21,05,298,29,24,19,254,39,26,73,010,42*7D
$GPGGA,153007,3933.9584,N,00238.1005,E,2,04,2.5,4.6,M,,M,,*59
$GPGSV,3,1,12,05,51,200,48,08,31,050,44,09,35,052,43,10,06,159,31*7F
$GPGSV,3,2,12,15,42,308,45,21,05,298,30,24,19,254,37,26,73,010,43*7A
$BGMTW,016,C*3A
$BGDBT,17.0,f,5.2,M,2.8,F*2A
$BGVWT,170,R,009.1,N,004.7,M,,K*72
$BGMWV,171,T,009.5,N,A*2E
$BGVLW,8068.63,N,1765.49,N*46
$GPGGA,153008,3933.9589,N,00238.1005,E,2,05,1.9,4.5,M,,M,,*56
$BGVHW,,T,085,M,00.00,N,,K*46
$BGMWD,,T,256,M,009.5,N,004.9,M*74
$BGVWR,172,R,010.4,N,005.3,M,,K*7E
$BGHDM,085,M*31
$BGMWD,,T,255,M,009.1,N,004.7,M*7D
$GPGSV,3,1,12,05,51,200,48,08,31,050,44,09,35,052,44,10,06,159,32*7B
$GPGSV,3,3,12,28,52,071,44,33,40,207,00,39,38,146,00,40,19,115,39*71
$BGMWV,171,R,009.9,N,A*24
$BGMWV,170,T,009.1,N,A*2B
$BGMTW,016,C*3A
$BGMWV,172,R,010.3,N,A*25
$BGVPW,0.00,N,,M*4C
$GPGSV,3,3,12,28,52,071,44,33,40,207,00,39,38,146,00,40,19,115,36*7E
$BGMWD,,T,254,M,009.8,N,005.0,M*73
$BGVLW,8068.63,N,1765.49,N*46
$BGVWR,171,R,010.8,N,005.5,M,,K*77
$GPGSV,3,1,12,05,51,200,47,08,31,050,44,09,35,052,45,10,06,159,30*77
$GPGSA,A,3,08,09,10,26,28,,,,,,,,1.9,1.1,1.6*33
$BGMWV,171,R,010.8,N,A*2D
$GPVTG,,T,206.3,M,0.1,N,0.1,K,D*0F
$GPGSV,3,3,12,28,52,071,45,33,40,207,00,39,38,146,00,40,19,115,37*7E
$BGVHW,,T,085,M,00.00,N,,K*46
$BGVWT,166,R,009.8,N,005.0,M,,K*7A
$GPGSV,3,1,12,05,51,200,47,08,31,050,44,09,35,052,44,10,06,159,32*74
$GPGGA,153010,3933.9589,N,00238.1006,E,2,05,1.9,4.3,M,,M,,*5A
$BGMWV,169,R,010.8,N,A*24
$GPGSV,3,2,12,15,42,308,45,21,05,298,31,24,19,254,37,26,73,010,44*7C
$BGMTW,016,C*3A
$GPGSV,3,1,12,05,51,200,48,08,31,050,44,09,35,052,44,10,06,159,34*7D
$GPGSV,3,2,12,15,42,308,48,21,05,298,29,24,19,254,37,26,73,010,42*7E
$BGHDM,085,M*31
$BGDBT,16.9,f,5.2,M,2.8,F*22
$BGMWV,166,T,009.8,N,A*25
$GPGGA,153009,3933.9584,N,00238.1005,E,2,04,2.5,4.4,M,,M,,*55
$BGVWR,169,R,010.8,N,005.5,M,,K*7E
$GPGSV,3,1,12,05,51,200,47,08,31,050,43,09,35,052,45,10,06,159,30*70
$BGMWD,,T,251,M,009.8,N,005.0,M*76
$GPVTG,,T,206.0,M,0.1,N,0.1,K,D*0C
$GPGGA,153012,3933.9594,N,00238.1007,E,2,05,1.9,4.2,M,,M,,*54
$GPGGA,153011,3933.9592,N,00238.1006,E,2,05,1.9,4.3,M,,M,,*51
$GPGSV,3,1,12,05,51,200,48,08,31,050,43,09,35,052,43,10,06,159,00*7A
$GPGSA,A,3,08,09,10,26,28,,,,,,,,1.9,1.1,1.6*33
$GPGSV,3,2,12,15,42,308,45,21,05,298,30,24,19,254,36,26,73,010,41*79
$GPGSA,A,3,08,09,26,28,,,,,,,,,2.5,1.4,2.1*3C
$GPGSV,3,2,12,15,42,308,47,21,05,298,30,24,19,254,38,26,73,010,44*70
$BGVHW,,T,085,M,00.00,N,,K*46
$GPGSA,A,3,08,09,10,26,28,,,,,,,,1.9,1.1,1.6*33
$GPGSV,3,2,12,15,42,308,45,21,05,298,30,24,19,254,34,26,73,010,44*7E
$BGMWV,169,T,009.8,N,A*2A
$GPVTG,,T,206.4,M,0.1,N,0.1,K,D*08
$GPVTG,,T,206.0,M,0.0,N,0.1,K,D*0D
$BGMTW,016,C*3A
$GPGSV,3,3,12,28,52,071,45,33,40,207,00,39,38,146,00,40,19,115,38*71
$BGDBT,17.0,f,5.2,M,2.8,F*2A
$GPGSV,3,3,12,28,52,071,44,33,40,207,00,39,38,146,00,40,19,115,38*70
$BGHDM,085,M*31
$BGVLW,8068.63,N,1765.49,N*46
$BGVWT,169,R,009.8,N,005.0,M,,K*75
$BGVPW,0.00,N,,M*4C
$GPVTG,,T,207.9,M,0.0,N,0.1,K,D*05
$GPGGA,153013,3933.9596,N,00238.1007,E,2,05,1.9,4.2,M,,M,,*57
$BGMWV,165,R,011.6,N,A*27
$BGMTW,016,C*3A
$GPGSV,3,2,12,15,42,308,43,21,05,298,31,24,19,254,38,26,73,010,44*75
$BGVHW,,T,085,M,00.00,N,,K*46
$GPGSV,3,3,12,28,52,071,45,33,40,207,00,39,38,146,00,40,19,115,38*71
$GPVTG,,T,205.5,M,0.0,N,0.1,K,D*0B
$GPGSV,3,3,12,28,52,071,46,33,40,207,00,39,38,146,00,40,19,115,36*7C
$GPGSV,3,3,12,28,52,071,46,33,40,207,00,39,38,146,00,40,19,115,37*7D
$BGVHW,,T,085,M,00.00,N,,K*46
$GPGSA,A,3,08,09,10,26,28,,,,,,,,1.9,1.1,1.6*33
$BGMWV,163,R,012.1,N,A*25
$GPVTG,,T,204.2,M,0.1,N,0.1,K,D*0C
$BGMWD,,T,243,M,010.9,N,005.6,M*7A
$BGHDM,085,M*31
$BGVWT,158,R,010.9,N,005.6,M,,K*78
$BGVPW,0.00,N,,M*4C
$BGMWV,159,T,010.5,N,A*2C
$BGMWD,,T,248,M,010.1,N,005.2,M*7D
$GPGGA,153014,3933.9598,N,00238.1008,E,2,05,1.9,4.2,M,,M,,*51
$GPGSA,A,3,08,09,10,26,28,,,,,,,,1.9,1.1,1.6*33
$GPGGA,153017,3933.9600,N,00238.1007,E,2,05,1.9,4.3,M,,M,,*5E
$BGMTW,016,C*3A
$GPVTG,,T,206.0,M,0.0,N,0.1,K,D*0D
$BGHDM,085,M*31
$BGDBT,17.0,f,5.2,M,2.8,F*2A
$BGVLW,8068.63,N,1765.49,N*46
$BGDBT,17.0,f,5.2,M,2.8,F*2A
$GPGSV,3,1,12,05,51,200,47,08,31,050,42,09,35,052,46,10,06,159,31*73
$GPGSV,3,2,12,15,42,308,46,21,05,298,29,24,19,254,35,26,73,010,44*74
$GPGSV,3,1,12,05,51,200,47,08,31,050,42,09,35,052,46,10,06,159,33*71
$GPGSA,A,3,08,09,10,26,28,,,,,,,,1.9,1.1,1.6*33
$BGVPW,0.00,N,,M*4C
$BGHDM,085,M*31
$GPGSV,3,3,12,28,52,071,45,33,40,207,00,39,38,146,00,40,19,115,37*7E
$GPVTG,,T,205.0,M,0.1,N,0.1,K,D*0F
$GPGSV,3,1,12,05,51,200,47,08,31,050,43,09,35,052,46,10,06,159,31*72
$BGMWD,,T,245,M,010.5,N,005.4,M*72
$BGVLW,8068.63,N,1765.49,N*46
$BGMWV,167,R,011.2,N,A*21
$BGVWR,164,R,011.9,N,006.1,M,,K*74
$BGVLW,8068.63,N,1765.49,N*46
$GPGSV,3,2,12,15,42,308,46,21,05,299,29,24,20,254,38,26,73,010,43*75
$BGVHW,,T,085,M,00.00,N,,K*46
$GPGGA,153016,3933.9599,N,00238.1007,E,2,05,1.9,4.3,M,,M,,*5C
$BGDBT,17.0,f,5.2,M,2.8,F*2A
$BGVWR,163,R,012.2,N,006.3,M,,K*79
$BGVWT,163,R,010.1,N,005.2,M,,K*7C
$GPGSA,A,3,08,09,10,26,28,,,,,,,,1.9,1.1,1.6*33
$BGVWT,159,R,010.5,N,005.4,M,,K*77
$GPGSV,3,1,12,05,51,200,47,08,31,050,42,09,35,052,47,10,06,159,33*70
$BGVPW,0.00,N,,M*4C
$BGMWV,158,T,010.9,N,A*21
$GPGGA,153018,3933.9600,N,00238.1008,E,2,05,1.9,4.3,M,,M,,*5E
$GPGGA,153015,3933.9599,N,00238.1008,E,2,05,1.9,4.3,M,,M,,*50
$GPGSV,3,2,12,15,42,308,43,21,05,298,32,24,19,254,39,26,73,010,43*70
$GPVTG,,T,204.8,M,0.1,N,0.1,K,D*06
$BGVWR,166,R,011.4,N,005.8,M,,K*71
$BGMWV,163,T,010.1,N,A*21
$GPGSA,A,3,08,09,10,26,28,,,,,,,,1.9,1.1,1.6*33
$GPGSV,3,1,12,05,51,200,46,08,31,050,41,09,35,052,46,10,05,159,33*70
$BGMTW,016,C*3A
$GPGSV,3,2,12,15,42,308,45,21,05,298,29,24,19,254,36,26,73,010,44*74
$GPGSV,3,3,12,28,52,071,45,33,40,207,00,39,38,146,00,40,19,115,37*7E
$GPGSV,3,1,12,05,51,200,46,08,31,050,40,09,35,052,47,10,05,159,34*77
$GPGSV,3,1,12,05,51,200,46,08,31,050,40,09,35,052,46,10,05,159,32*70
$GPGSA,A,3,08,09,10,26,28,,,,,,,,1.9,1.1,1.6*33
$GPGSA,A,3,08,09,10,26,28,,,,,,,,1.9,1.1,1.6*33
$BGVLW,8068.63,N,1765.49,N*46
$GPGSA,A,3,08,09,10,26,28,,,,,,,,1.9,1.1,1.6*33
$BGVWT,156,R,011.2,N,005.8,M,,K*72
$BGMWD,,T,241,M,011.2,N,005.8,M*7C
$BGVLW,8068.63,N,1765.49,N*46
$BGMTW,016,C*3A
$BGHDM,085,M*31
$BGMWV,162,R,012.4,N,A*21
$BGMWV,156,T,011.2,N,A*25
$BGVPW,0.00,N,,M*4C
$GPGSA,A,3,08,09,10,26,28,,,,,,,,1.9,1.1,1.6*33
$BGDBT,17.0,f,5.2,M,2.8,F*2A
$BGMWV,163,R,012.3,N,A*27
$BGVWR,161,R,012.3,N,006.3,M,,K*7A
$BGVPW,0.00,N,,M*4C
$GPGSV,3,3,12,28,52,071,46,33,40,207,00,39,38,146,00,40,19,115,36*7C
$BGVWR,162,R,012.3,N,006.3,M,,K*79
$BGMTW,016,C*3A
$GPGSV,3,3,12,28,52,071,45,33,40,207,00,39,38,146,00,40,19,115,35*7C
$GPGSV,3,2,12,15,42,308,42,21,05,299,28,24,20,254,37,26,73,010,45*79
$GPGSV,3,3,12,28,52,071,42,33,40,207,00,39,38,146,00,40,19,115,36*78
$GPGSV,3,2,12,15,42,308,45,21,05,299,28,24,20,254,36,26,73,010,45*7F
$BGVHW,,T,085,M,00.00,N,,K*46
$GPGSV,3,3,12,28,52,071,44,33,40,207,00,39,38,146,00,40,19,115,34*7C
$GPGSA,A,3,08,09,10,26,28,,,,,,,,1.9,1.1,1.6*33
$GPGSV,3,1,12,05,51,200,45,08,31,050,43,09,35,052,46,10,05,159,37*75
$GPGGA,153020,3933.9601,N,00238.1008,E,2,05,1.9,4.4,M,,M,,*53
$GPGSV,3,1,12,05,51,200,47,08,31,050,41,09,35,052,45,10,05,159,34*75
$BGVHW,,T,085,M,00.00,N,,K*46
$BGMWD,,T,243,M,011.2,N,005.8,M*7E
$GPGGA,153022,3933.9600,N,00238.1010,E,2,05,1.9,4.5,M,,M,,*58
$GPGGA,153021,3933.9600,N,00238.1009,E,2,05,1.9,4.4,M,,M,,*52
$GPGSV,3,2,12,15,42,308,40,21,05,299,29,24,20,254,37,26,73,010,43*7C
$GPVTG,,T,203.9,M,0.1,N,0.1,K,D*00
$GPVTG,,T,203.4,M,0.1,N,0.1,K,D*0D
$BGDBT,17.0,f,5.2,M,2.8,F*2A
$GPVTG,,T,202.9,M,0.1,N,0.1,K,D*01
$BGMWV,157,T,011.2,N,A*24
$GPGSV,3,2,12,15,42,308,47,21,05,299,28,24,20,254,39,26,73,010,42*75
$GPGGA,153019,3933.9601,N,00238.1008,E,2,05,1.9,4.4,M,,M,,*59
$BGHDM,085,M*31
$BGVWT,157,R,011.2,N,005.8,M,,K*73
$GPVTG,,T,200.9,M,0.1,N,0.1,K,D*03
$GPGSV,3,3,12,28,52,071,40,33,40,207,00,39,38,146,00,40,19,115,37*7B
$BGMWV,154,T,010.9,N,A*2D
$GPGGA,153025,3933.9599,N,00238.1012,E,2,05,1.9,4.7,M,,M,,*5C
$BGVLW,8068.63,N,1765.49,N*46
$GPGSV,3,3,12,28,52,071,40,33,40,207,00,39,38,146,00,40,19,115,33*7F
$GPVTG,,T,199.3,M,0.1,N,0.1,K,D*0A
$GPGSV,3,2,12,15,42,308,47,21,05,299,28,24,20,254,40,26,73,010,44*7D
$BGDBT,17.0,f,5.2,M,2.8,F*2A
$BGVWT,154,R,010.9,N,005.6,M,,K*74
$BGHDM,084,M*30
$BGMWD,,T,239,M,010.9,N,005.6,M*77
$GPGSV,3,2,12,15,42,308,45,21,05,299,31,24,20,254,37,26,73,010,45*76
$BGVWR,159,R,011.9,N,006.1,M,,K*7A
$GPGSV,3,1,12,05,51,200,47,08,31,050,42,09,35,052,45,10,05,159,38*7A
$GPGSA,A,3,08,09,10,26,28,,,,,,,,1.9,1.1,1.6*33
$BGMWV,160,R,012.1,N,A*26
$BGMWV,152,T,010.7,N,A*25
$BGMTW,016,C*3A
$GPGSV,3,1,12,05,51,200,46,08,31,050,42,09,35,052,47,10,05,159,38*79
$GPGGA,153023,3933.9600,N,00238.1010,E,2,05,1.9,4.6,M,,M,,*5A
$BGVPW,0.00,N,,M*4C
$GPGSA,A,3,08,09,10,26,28,,,,,,,,1.9,1.1,1.6*33
$BGVPW,0.00,N,,M*4C
$GPVTG,,T,199.8,M,0.1,N,0.1,K,D*01
$GPGSV,3,2,12,15,42,308,44,21,05,299,30,24,20,254,39,26,73,010,44*79
$GPGSV,3,3,12,28,52,071,42,33,40,207,00,39,38,146,00,40,19,115,34*7A
$GPGGA,153026,3933.9599,N,00238.1012,E,2,05,1.9,4.8,M,,M,,*50
$GPVTG,,T,200.4,M,0.1,N,0.1,K,D*0E
$BGVHW,,T,084,M,00.00,N,,K*47
$BGHDM,085,M*31
$GPGGA,153024,3933.9599,N,00238.1011,E,2,05,1.9,4.6,M,,M,,*5F
$BGVLW,8068.63,N,1765.49,N*46
$BGDBT,17.0,f,5.2,M,2.8,F*2A
$BGMWD,,T,237,M,010.7,N,005.5,M*74
$GPGSV,3,1,12,05,51,200,47,08,31,050,40,09,35,052,46,10,05,159,36*75
$BGMWV,159,R,011.9,N,A*27
$GPGSV,3,2,12,15,42,308,47,21,05,299,30,24,20,254,41,26,73,010,44*75
$BGVWT,152,R,010.7,N,005.5,M,,K*7F
$BGVWR,160,R,012.1,N,006.2,M,,K*78
$BGVHW,,T,084,M,00.00,N,,K*47
$GPGSV,3,1,12,05,51,200,45,08,31,050,40,09,35,052,45,10,05,159,34*76
$GPGSA,A,3,08,09,10,26,28,,,,,,,,1.9,1.1,1.6*33
$GPVTG,,T,199.3,M,0.1,N,0.1,K,D*0A
$GPGSV,3,3,12,28,52,071,42,33,40,207,00,39,38,146,00,40,19,115,34*7A
$BGMTW,016,C*3A
$GPGSA,A,3,08,09,10,26,28,,,,,,,,1.9,1.1,1.6*33
$BGVLW,8068.63,N,1765.49,N*46
$BGMWD,,T,236,M,010.5,N,005.4,M*76
$BGMWD,,T,234,M,010.7,N,005.5,M*77
$GPGSV,3,2,12,15,42,308,46,21,05,299,32,24,20,254,41,26,73,010,44*76
$GPVTG,,T,198.9,M,0.0,N,0.1,K,D*00
$BGVWT,150,R,010.7,N,005.5,M,,K*7D
$GPGGA,153028,3933.9598,N,00238.1012,E,2,05,1.9,4.9,M,,M,,*5E
$GPGGA,153027,3933.9598,N,00238.1012,E,2,05,1.9,4.8,M,,M,,*50
$BGVLW,8068.63,N,1765.49,N*46
$GPVTG,,T,197.5,M,0.0,N,0.1,K,D*03
$GPGSV,3,2,12,15,42,308,44,21,05,299,29,24,20,254,40,26,73,010,43*78
$GPGSV,3,3,12,28,52,071,42,33,40,207,00,39,38,146,38,40,19,115,35*70
$GPGSV,3,2,12,15,42,308,46,21,05,299,28,24,20,254,40,26,73,010,43*7B
$GPVTG,,T,199.3,M,0.0,N,0.1,K,D*0B
$BGHDM,084,M*30
$GPGSV,3,3,12,28,52,071,43,33,40,207,00,39,38,146,00,40,19,115,34*7B
$BGVPW,0.00,N,,M*4C
$BGMWV,150,T,010.7,N,A*27
$GPGGA,153029,3933.9597,N,00238.1013,E,2,05,1.9,5.0,M,,M,,*59
$GPGSV,3,3,12,28,52,071,40,33,40,207,00,39,38,146,39,40,19,115,34*72
$GPVTG,,T,197.5,M,0.1,N,0.1,K,D*02
$GPGGA,153030,3933.9596,N,00238.1013,E,2,05,1.9,5.1,M,,M,,*51
$GPGGA,153031,3933.9596,N,00238.1014,E,2,05,1.9,5.2,M,,M,,*54
$BGMTW,016,C*3A
$GPGSV,3,1,12,05,51,200,47,08,31,050,41,09,35,052,46,10,05,159,32*70
$BGMWV,151,T,010.5,N,A*24
$BGMWV,157,R,012.0,N,A*23
$GPGSA,A,3,08,09,10,26,28,,,,,,,,1.9,1.1,1.6*33
$GPGSA,A,3,08,09,10,26,28,,,,,,,,1.9,1.1,1.6*33
$BGVHW,,T,084,M,00.00,N,,K*47
$BGDBT,17.0,f,5.2,M,2.8,F*2A
$BGVWT,151,R,010.6,N,005.5,M,,K*7D
$GPGSV,3,2,12,15,42,308,45,21,05,299,29,24,20,254,40,26,73,010,43*79
$BGMWV,158,R,011.8,N,A*27
$GPVTG,,T,198.4,M,0.0,N,0.1,K,D*0D
$GPGSV,3,1,12,05,51,200,46,08,31,050,42,09,35,052,45,10,05,159,32*71
$BGVWR,158,R,011.9,N,006.1,M,,K*7B
$BGHDM,084,M*30
$GPGSV,3,1,12,05,51,200,47,08,31,050,40,09,35,052,44,10,05,159,34*75
$GPGSA,A,3,08,09,10,26,28,,,,,,,,1.9,1.1,1.6*33
$GPGSV,3,1,12,05,51,200,47,08,31,050,42,09,35,052,45,10,05,159,36*74
$BGVWR,157,R,011.9,N,006.1,M,,K*74
$BGMTW,016,C*3A
$BGDBT,17.1,f,5.2,M,2.9,F*2A
$BGVHW,,T,084,M,00.00,N,,K*47
$GPGSV,3,2,12,15,42,308,45,21,05,299,28,24,20,254,41,26,73,010,44*7E
$BGVPW,0.00,N,,M*4C
$GPGSV,3,1,12,05,51,200,46,08,31,050,42,09,35,052,46,10,05,159,33*73
$GPGSV,3,3,12,28,52,071,40,33,40,207,00,39,38,146,39,40,19,115,34*72
$GPGSA,A,3,08,09,10,26,28,,,,,,,,1.9,1.1,1.6*33
$GPGSV,3,3,12,28,52,071,43,33,40,207,00,39,38,146,00,40,19,115,37*78
$GPGSV,3,3,12,28,52,071,43,33,40,207,00,39,38,146,00,40,19,115,37*78
$BGMWV,159,R,011.7,N,A*29
$BGMWV,162,R,011.2,N,A*24
$GPGSV,3,1,12,05,51,200,47,08,31,050,43,09,35,052,46,10,05,159,29*78
$BGMTW,016,C*3A
$GPGSV,3,2,12,15,42,308,41,21,05,299,29,24,20,254,42,26,73,010,43*7F
$BGMWV,153,T,010.5,N,A*26
$BGVWR,159,R,011.5,N,005.9,M,,K*7D
$BGVPW,0.00,N,,M*4C
$GPGSV,3,3,12,28,52,071,43,33,40,207,00,39,38,146,00,40,19,115,38*77
$GPGSV,3,1,12,05,51,200,47,08,31,050,43,09,35,052,45,10,05,159,31*72
$GPGGA,153034,3933.9595,N,00238.1015,E,2,05,1.9,5.4,M,,M,,*55
$GPVTG,,T,195.2,M,0.1,N,0.1,K,D*07
$GPGSA,A,3,08,09,10,26,28,,,,,,,,1.9,1.1,1.6*33
$GPGGA,153033,3933.9595,N,00238.1014,E,2,05,1.9,5.4,M,,M,,*53
$BGMWD,,T,241,M,010.0,N,005.1,M*76
$BGMTW,016,C*3A
$BGVWR,162,R,011.2,N,005.7,M,,K*7C
$GPGSV,3,2,12,15,42,308,47,21,05,299,29,24,20,254,39,26,73,010,44*72
$BGMWD,,T,237,M,010.5,N,005.4,M*77
$GPVTG,,T,194.9,M,0.1,N,0.1,K,D*0D
$GPVTG,,T,197.0,M,0.0,N,0.1,K,D*06
$GPGSA,A,3,08,09,10,26,28,,,,,,,,1.9,1.1,1.6*33
$GPGSV,3,3,12,28,52,071,44,33,40,207,00,39,38,146,00,40,19,115,35*7D
$GPGSA,A,3,08,09,10,26,28,,,,,,,,1.9,1.1,1.6*33
$BGHDM,084,M*30
$BGVLW,8068.63,N,1765.49,N*46
$GPGSA,A,3,08,09,10,26,28,,,,,,,,1.9,1.1,1.6*33
$GPGSV,3,3,12,28,52,071,44,33,40,207,00,39,38,146,00,40,19,115,37*7F
$BGVWT,153,R,010.5,N,005.4,M,,K*7D
$BGVHW,,T,084,M,00.00,N,,K*47
$BGVPW,0.00,N,,M*4C
$BGHDM,084,M*30
$BGVHW,,T,084,M,00.00,N,,K*47
$GPGSA,A,3,08,09,10,26,28,,,,,,,,1.9,1.1,1.6*33
$GPGSV,3,2,12,15,42,308,43,21,05,299,30,24,20,254,39,26,73,010,41*7B
$GPGGA,153035,3933.9594,N,00238.1015,E,2,05,1.9,5.5,M,,M,,*54
$GPGGA,153032,3933.9596,N,00238.1014,E,2,05,1.9,5.3,M,,M,,*56
$GPGSV,3,2,12,15,42,308,44,21,05,299,29,24,20,254,39,26,73,010,43*76
$GPVTG,,T,196.5,M,0.1,N,0.1,K,D*03
$GPGSV,3,3,12,28,52,071,44,33,40,207,00,39,38,146,00,40,19,115,36*7E
$BGDBT,17.0,f,5.2,M,2.8,F*2A
$GPGSV,3,1,12,05,51,200,48,08,31,050,43,09,35,052,45,10,05,159,30*7C
$BGVLW,8068.63,N,1765.49,N*46
$BGMWV,157,T,010.0,N,A*27
$GPGSV,3,1,12,05,51,200,47,08,31,050,43,09,35,052,45,10,05,159,32*71
$BGDBT,17.0,f,5.2,M,2.8,F*2A
$BGVWT,157,R,010.0,N,005.1,M,,K*79
$BGVLW,8068.63,N,1765.49,N*46
$BGVWT,158,R,010.2,N,005.2,M,,K*77
$BGVLW,8068.63,N,1765.49,N*46
$GPGSV,3,3,12,28,52,071,44,33,40,207,00,39,38,146,00,40,19,115,36*7E
$BGVHW,,T,084,M,00.00,N,,K*47
$BGVPW,0.00,N,,M*4C
$BGMTW,016,C*3A
$GPGGA,153036,3933.9594,N,00238.1015,E,2,05,1.9,5.6,M,,M,,*54
$BGVHW,,T,085,M,00.00,N,,K*46
$GPGSV,3,1,12,05,51,200,48,08,31,050,43,09,35,052,45,10,05,159,32*7E
$GPGGA,153037,3933.9593,N,00238.1015,E,2,05,1.9,5.6,M,,M,,*52
$GPVTG,,T,194.6,M,0.1,N,0.1,K,D*02
$BGMWV,156,T,010.3,N,A*25
$BGMWD,,T,238,M,010.1,N,005.2,M*7A
$BGHDM,085,M*31
$BGVWR,162,R,011.5,N,005.9,M,,K*75
$BGMWV,158,T,010.2,N,A*2A
$BGVWR,160,R,011.4,N,005.8,M,,K*77
$GPGSA,A,3,08,09,10,26,28,,,,,,,,1.9,1.1,1.6*33
$BGMWV,163,R,011.5,N,A*22
$BGVWR,163,R,011.5,N,005.9,M,,K*74
$BGMWD,,T,240,M,010.3,N,005.3,M*76
$BGVLW,8068.63,N,1765.49,N*46
$BGVPW,0.00,N,,M*4C
$BGVWT,153,R,010.1,N,005.2,M,,K*7F
$BGVWT,156,R,010.3,N,005.3,M,,K*79
$BGDBT,17.0,f,5.2,M,2.8,F*2A
$GPGSV,3,1,12,05,51,200,47,08,31,050,43,09,35,052,45,10,05,159,32*71
$BGDBT,17.0,f,5.2,M,2.8,F*2A
$BGHDM,085,M*31
$BGDBT,17.1,f,5.2,M,2.8,F*2B
$BGMTW,016,C*3A
$BGMWV,160,R,011.4,N,A*20
$BGVHW,,T,085,M,00.00,N,,K*46
$GPVTG,,T,194.4,M,0.0,N,0.1,K,D*01
$GPGSV,3,2,12,15,42,308,44,21,05,299,32,24,20,254,39,26,73,010,43*7C
$GPGSV,3,2,12,15,42,308,45,21,05,299,30,24,20,254,38,26,73,010,43*7E
$BGMWV,162,R,011.5,N,A*23
$GPGSV,3,1,12,05,51,200,47,08,31,050,43,09,35,052,44,10,05,159,32*70
$GPGSV,3,3,12,28,52,071,43,33,40,207,00,39,38,146,00,40,19,115,37*78
$BGVPW,0.00,N,,M*4C
$GPGSA,A,3,08,09,10,26,28,,,,,,,,1.9,1.1,1.6*33
$BGHDM,084,M*30
$GPVTG,,T,194.4,M,0.1,N,0.1,K,D*00
$GPGGA,153038,3933.9593,N,00238.1015,E,2,05,1.9,5.7,M,,M,,*5C
$BGMWD,,T,242,M,010.2,N,005.2,M*74
$BGMTW,016,C*3A
$BGMWV,153,T,010.1,N,A*22
$GPGSV,3,2,12,15,42,308,44,21,05,299,29,24,20,254,38,26,73,010,44*70
$BGVLW,8068.63,N,1765.49,N*46
$BGMWD,,T,244,M,011.1,N,005.7,M*75
$GPGSV,3,2,12,15,42,308,43,21,05,299,30,24,20,254,37,26,73,010,43*77
$GPGSA,A,3,08,09,26,28,,,,,,,,,2.5,1.4,2.1*3C
$GPGSV,3,2,12,15,42,308,42,21,05,299,31,24,20,254,39,26,73,010,42*78
$GPGSV,3,2,12,15,42,308,42,21,05,299,28,24,20,254,39,26,73,010,42*70
$BGVWR,164,R,012.3,N,006.3,M,,K*7F
$BGHDM,085,M*31
$GPGGA,153039,3933.9592,N,00238.1015,E,2,05,1.9,5.8,M,,M,,*53
$BGHDM,086,M*32
$BGMWV,159,T,011.1,N,A*29
$GPGSV,3,3,12,28,52,071,44,33,40,207,00,39,38,146,00,40,19,115,36*7E
$BGMWV,164,R,012.3,N,A*20
$GPGSV,3,3,12,28,52,071,43,33,40,207,00,39,38,146,00,40,19,115,37*78
$BGVHW,,T,086,M,00.00,N,,K*45
$GPGSV,3,1,12,05,51,200,47,08,31,050,43,09,35,052,45,10,05,159,33*70
$GPGSV,3,3,12,28,52,071,44,33,40,207,00,39,38,146,00,40,19,115,36*7E
$GPGSV,3,1,12,05,51,200,47,08,31,050,45,09,35,052,46,10,05,159,30*76
$GPGSA,A,3,08,09,10,26,28,,,,,,,,1.9,1.1,1.6*33
$BGVWT,159,R,011.0,N,005.6,M,,K*71
$GPVTG,,T,195.8,M,0.1,N,0.1,K,D*0D
$GPGSV,3,1,12,05,51,200,48,08,31,050,44,09,35,052,45,10,05,159,28*72
$GPGGA,153042,3933.9576,N,00238.1014,E,2,04,2.5,5.8,M,,M,,*5A
$GPGGA,153040,3933.9586,N,00238.1014,E,2,04,2.5,5.8,M,,M,,*57
$BGMWV,159,T,011.0,N,A*28
$GPGSV,3,1,12,05,51,200,48,08,31,050,43,09,35,052,45,10,05,159,30*7C
$BGVHW,,T,085,M,00.00,N,,K*46
$GPGSA,A,3,08,09,10,26,28,,,,,,,,1.9,1.1,1.6*33
$BGVPW,0.00,N,,M*4C
$BGMTW,016,C*3A
$GPGSV,3,3,12,28,52,071,43,33,40,207,00,39,38,146,00,40,19,115,37*78
$BGMWV,164,R,012.2,N,A*21
$GPGSV,3,2,12,15,42,308,44,21,05,299,30,24,20,254,40,26,73,010,41*72
$GPVTG,,T,195.5,M,0.1,N,0.1,K,D*00
$BGDBT,17.2,f,5.2,M,2.9,F*29
$GPGGA,153043,3933.9571,N,00238.1014,E,2,04,2.5,5.7,M,,M,,*53
$GPGGA,153041,3933.9582,N,00238.1014,E,2,05,1.9,5.8,M,,M,,*5C
$GPGSV,3,1,12,05,51,200,48,08,31,050,45,09,35,052,44,10,05,159,28*72
$GPGSV,3,2,12,15,42,308,43,21,05,299,31,24,20,254,40,26,73,010,42*77
$BGMWD,,T,244,M,011.0,N,005.6,M*75
$BGVPW,0.00,N,,M*4C
$GPVTG,,T,194.6,M,0.0,N,0.1,K,D*03
$BGMTW,016,C*3A
$GPVTG,,T,195.6,M,0.1,N,0.1,K,D*03
$GPGSV,3,3,12,28,52,071,44,33,40,207,00,39,38,146,00,40,19,115,36*7E
$GPGSV,3,3,12,28,52,071,44,33,40,207,00,39,38,146,00,40,19,115,37*7F
$GPGSA,A,3,08,09,10,26,28,,,,,,,,1.9,1.1,1.6*33
$GPVTG,,T,195.7,M,0.1,N,0.1,K,D*02
$BGVWR,164,R,012.2,N,006.3,M,,K*7E
$GPGSA,A,3,08,09,26,28,,,,,,,,,2.5,1.4,2.1*3C
$BGDBT,17.0,f,5.2,M,2.8,F*2A
$BGVWT,159,R,011.1,N,005.7,M,,K*71
$BGVLW,8068.63,N,1765.49,N*46
$BGVWR,165,R,012.2,N,006.2,M,,K*7E
$BGVHW,,T,086,M,00.00,N,,K*45
$GPGSV,3,2,12,15,42,308,43,21,05,299,29,24,20,254,41,26,73,010,43*7E
$BGVLW,8068.63,N,1765.49,N*46
$GPGSV,3,2,12,15,43,308,43,21,05,299,28,24,20,255,39,26,73,011,43*71
$BGMWV,166,R,011.0,N,A*22
$BGMTW,016,C*3A
$BGMWD,,T,247,M,010.7,N,005.5,M*73
$BGVPW,0.00,N,,M*4C
$GPGSV,3,1,12,05,51,200,48,08,31,050,45,09,35,052,46,10,05,159,32*7B
$GPGGA,153048,3933.9557,N,00238.1013,E,2,04,2.5,4.9,M,,M,,*54
$GPVTG,,T,195.1,M,0.1,N,0.1,K,D*04
$GPGGA,153045,3933.9563,N,00238.1013,E,2,04,2.5,5.4,M,,M,,*52
$BGVWR,166,R,011.0,N,005.6,M,,K*7B
$BGDBT,17.1,f,5.2,M,2.9,F*2A
$BGHDM,086,M*32
$GPGSA,A,3,08,09,10,26,28,,,,,,,,1.9,1.1,1.6*33
$GPGSA,A,3,08,09,26,28,,,,,,,,,2.5,1.4,2.1*3C
$GPGSV,3,2,12,15,42,308,45,21,05,299,30,24,20,254,41,26,73,010,43*70
$GPGSV,3,3,12,28,52,071,43,33,40,207,00,39,38,146,00,40,19,115,37*78
$GPGSV,3,1,12,05,51,200,48,08,31,050,45,09,35,052,46,10,05,159,28*70
$GPGSA,A,3,08,09,26,28,,,,,,,,,2.5,1.4,2.1*3C
$GPGSV,3,1,12,05,51,200,48,08,31,050,43,09,35,052,45,10,05,159,28*75
$BGMWD,,T,248,M,010.0,N,005.1,M*7F
$GPGSV,3,3,12,28,52,071,44,33,40,207,00,39,38,146,00,40,19,115,36*7E
$BGDBT,17.0,f,5.2,M,2.8,F*2A
$BGVHW,,T,086,M,00.00,N,,K*45
$GPVTG,,T,193.9,M,0.1,N,0.1,K,D*0A
$GPGSV,3,1,12,05,51,200,47,08,31,050,44,09,35,052,43,10,05,159,30*72
$BGHDM,086,M*32
$BGVLW,8068.63,N,1765.49,N*46
$BGMWV,165,R,012.2,N,A*20
$GPVTG,,T,193.9,M,0.1,N,0.1,K,D*0A
$BGVWT,161,R,010.7,N,005.5,M,,K*7F
$GPGSV,3,3,12,28,52,071,43,33,40,207,00,39,38,146,00,40,19,115,35*7A
$GPGGA,153046,3933.9563,N,00238.1014,E,2,05,1.9,5.2,M,,M,,*5E
$BGVPW,0.00,N,,M*4C
$GPGSA,A,3,08,09,26,28,,,,,,,,,2.5,1.4,2.1*3C
$GPGGA,153044,3933.9567,N,00238.1014,E,2,04,2.5,5.5,M,,M,,*51
$GPGGA,153047,3933.9560,N,00238.1013,E,2,04,2.5,5.1,M,,M,,*56
$GPGSA,A,3,08,09,26,28,,,,,,,,,2.5,1.4,2.1*3C
$GPGSV,3,2,12,15,42,308,44,21,05,299,28,24,20,254,40,26,73,010,43*79
$GPGSV,3,3,12,28,52,071,44,33,40,207,00,39,38,146,00,40,19,115,36*7E
$BGMWV,162,T,010.0,N,A*21
$GPGSV,3,3,12,28,52,070,45,33,40,207,00,39,38,146,00,40,19,115,37*7F
$GPVTG,,T,193.9,M,0.1,N,0.1,K,D*0A
$BGMWV,161,T,010.7,N,A*25
$BGVWT,162,R,010.0,N,005.1,M,,K*7F
$GPVTG,,T,195.4,M,0.1,N,0.1,K,D*01
$BGMTW,016,C*3A
$GPGSV,3,2,12,15,42,308,46,21,05,299,29,24,20,254,38,26,73,010,43*75
$GPGSV,3,1,12,05,51,200,48,08,31,050,44,09,35,052,45,10,05,159,28*72
$BGVWR,165,R,011.2,N,005.8,M,,K*74
$BGVLW,8068.63,N,1765.49,N*46
$GPGSV,3,3,12,28,52,070,45,33,40,207,00,39,38,146,00,40,19,115,37*7F
$BGMWV,161,T,009.8,N,A*22
$GPGSA,A,3,08,09,26,28,,,,,,,,,2.5,1.4,2.1*3C
$GPGSA,A,3,08,09,26,28,,,,,,,,,2.5,1.4,2.1*3C
$BGVWT,161,R,010.6,N,005.4,M,,K*7F
$GPGSV,3,1,12,05,51,200,47,08,31,050,44,09,35,052,45,10,05,159,29*7C
$GPGSV,3,3,12,28,52,070,45,33,40,207,00,39,38,146,00,40,19,115,38*70
$BGMWD,,T,247,M,009.8,N,005.0,M*71
$BGMTW,016,C*3A
$GPGSV,3,2,12,15,43,308,41,21,05,299,29,24,20,255,39,26,73,011,44*75
$GPVTG,,T,194.1,M,0.1,N,0.1,K,D*05
$BGDBT,17.1,f,5.2,M,2.8,F*2B
$BGVHW,,T,086,M,00.00,N,,K*45
$BGVWT,161,R,009.8,N,005.0,M,,K*7D
$BGVPW,0.00,N,,M*4C
$BGHDM,086,M*32
$GPGGA,153051,3933.9549,N,00238.1011,E,2,04,2.5,4.3,M,,M,,*5B
$BGMWV,165,R,010.9,N,A*29
$GPGGA,153049,3933.9554,N,00238.1012,E,2,04,2.5,4.7,M,,M,,*59
$GPGSV,3,3,12,28,52,070,47,33,40,207,00,39,38,146,00,40,19,115,39*73
$BGMWD,,T,246,M,010.6,N,005.4,M*72
$GPGGA,153050,3933.9552,N,00238.1012,E,2,04,2.5,4.5,M,,M,,*55
$BGVPW,0.00,N,,M*4C
$GPGSV,3,1,12,05,51,200,47,08,31,050,43,09,35,052,44,10,05,159,30*72
$GPGSV,3,2,12,15,43,308,43,21,05,299,29,24,20,255,40,26,73,011,44*79
$GPGGA,153052,3933.9547,N,00238.1011,E,2,04,2.5,4.1,M,,M,,*54
$GPGSV,3,2,12,15,43,308,40,21,05,299,30,24,20,255,40,26,73,011,44*72
$BGDBT,17.0,f,5.2,M,2.8,F*2A
$BGMTW,016,C*3A
$GPGSV,3,3,12,28,52,070,46,33,40,207,00,39,38,146,00,40,19,115,38*73
$GPGSV,3,2,12,15,43,308,39,21,05,299,30,24,20,255,40,26,73,011,43*7B
$GPGSV,3,1,12,05,51,200,47,08,31,050,44,09,35,052,45,10,05,159,29*7C
$GPVTG,,T,194.3,M,0.1,N,0.1,K,D*07
$GPGSA,A,3,08,09,26,28,,,,,,,,,2.5,1.4,2.1*3C
$BGVLW,8068.63,N,1765.49,N*46
$BGHDM,086,M*32
$BGMWV,165,R,011.5,N,A*24
$GPGSV,3,1,12,05,51,200,46,08,31,050,43,09,35,052,45,10,05,159,29*7A
$BGVHW,,T,086,M,00.00,N,,K*45
$GPGSA,A,3,08,09,26,28,,,,,,,,,2.5,1.4,2.1*3C
$BGVWR,165,R,011.5,N,005.9,M,,K*72
$BGMWV,161,T,010.6,N,A*24
$GPVTG,,T,194.5,M,0.1,N,0.1,K,D*01
$GPVTG,,T,194.5,M,0.1,N,0.1,K,D*01
$GPGSA,A,3,08,09,26,28,,,,,,,,,2.5,1.4,2.1*3C
$GPVTG,,T,193.5,M,0.1,N,0.2,K,D*05
$GPGGA,153053,3933.9545,N,00238.1011,E,2,04,2.5,3.9,M,,M,,*58
$BGVLW,8068.63,N,1765.49,N*46
$BGVWR,173,R,011.3,N,005.8,M,,K*72
$BGVHW,,T,085,M,00.00,N,,K*46
$BGVPW,0.00,N,,M*4C
$BGMWD,,T,256,M,010.4,N,005.3,M*76
$GPGGA,153054,3933.9543,N,00238.1012,E,2,04,2.5,3.7,M,,M,,*54
$GPGSV,3,1,12,05,51,200,46,08,31,050,43,09,35,052,46,10,05,159,31*70
$BGMWV,165,T,010.6,N,A*20
$BGDBT,17.1,f,5.2,M,2.8,F*2B
$GPVTG,,T,194.1,M,0.1,N,0.2,K,D*06
$BGMWD,,T,251,M,010.6,N,005.4,M*74
$BGVLW,8068.63,N,1765.49,N*46
$GPGSV,3,2,12,15,43,308,43,21,05,299,28,24,20,255,40,26,73,011,44*78
$BGMWV,172,T,010.5,N,A*25
$BGVWT,172,R,010.5,N,005.4,M,,K*7E
$BGMWV,168,R,011.5,N,A*29
$BGVPW,0.00,N,,M*4C
$GPGSV,3,2,12,15,43,308,44,21,05,299,00,24,20,255,40,26,73,011,43*72
$BGMTW,016,C*3A
$BGVHW,,T,085,M,00.00,N,,K*46
$BGVLW,8068.63,N,1765.49,N*46
$BGMTW,016,C*3A
$GPGSV,3,1,12,05,51,200,45,08,31,050,41,09,35,052,45,10,05,159,27*75
$GPGSA,A,3,08,09,26,28,,,,,,,,,2.5,1.4,2.1*3C
$BGVWT,165,R,010.6,N,005.4,M,,K*7B
$BGVWT,170,R,010.4,N,005.3,M,,K*7A
$GPGSV,3,3,12,28,52,070,43,33,40,207,00,39,38,146,00,40,19,115,37*79
$BGMTW,016,C*3A
$GPGSV,3,3,12,28,52,070,44,33,40,207,00,39,38,146,00,40,19,115,38*71
$BGVPW,0.00,N,,M*4C
$GPGSV,3,1,12,05,51,200,48,08,31,050,44,09,35,052,46,10,05,159,28*71
$GPGSV,3,3,12,28,52,070,46,33,40,207,00,39,38,146,00,40,19,115,38*73
$BGMWV,170,T,010.4,N,A*26
$BGMWD,,T,257,M,010.5,N,005.4,M*71
$GPVTG,,T,192.8,M,0.1,N,0.2,K,D*09
$BGMWV,172,R,011.3,N,A*24
$BGDBT,17.0,f,5.2,M,2.8,F*2A
$BGHDM,085,M*31
$BGHDM,085,M*31
$BGVWR,169,R,011.4,N,005.9,M,,K*7F
$BGHDM,085,M*31
$GPGSV,3,2,12,15,43,308,40,21,05,299,00,24,20,255,40,26,73,011,43*76
$GPGGA,153055,3933.9541,N,00238.1012,E,2,04,2.5,3.5,M,,M,,*55
$GPGSA,A,3,08,09,26,28,,,,,,,,,2.5,1.4,2.1*3C
$BGVWR,172,R,011.3,N,005.8,M,,K*73
$BGMWV,173,R,011.3,N,A*25
$BGDBT,17.0,f,5.2,M,2.8,F*2A
$BGVHW,,T,085,M,00.00,N,,K*46
$BGVWR,174,R,011.7,N,006.0,M,,K*7A
$GPGSV,3,2,12,15,43,308,43,21,05,299,00,24,20,255,37,26,73,011,43*75
$GPGSA,A,3,08,09,26,28,,,,,,,,,2.5,1.4,2.1*3C
$BGVLW,8068.63,N,1765.49,N*46
$GPGGA,153058,3933.9543,N,00238.1012,E,2,05,1.9,2.9,M,,M,,*59
$GPGSV,3,2,12,15,43,308,44,21,05,299,00,24,20,255,38,26,73,011,43*7D
$GPVTG,,T,190.3,M,0.1,N,0.2,K,D*00
$BGMWV,174,R,011.6,N,A*27
$GPGGA,153059,3933.9547,N,00238.1012,E,2,05,1.9,2.8,M,,M,,*5D
$GPVTG,,T,190.1,M,0.1,N,0.2,K,D*02
$GPVTG,,T,190.1,M,0.1,N,0.2,K,D*02
$BGVHW,,T,085,M,00.00,N,,K*46
$GPVTG,,T,192.2,M,0.1,N,0.2,K,D*03
$BGMTW,016,C*3A
$GPGSV,3,1,12,05,51,200,47,08,31,050,41,09,35,052,45,10,05,159,31*70
$GPGSA,A,3,08,09,10,26,28,,,,,,,,1.9,1.1,1.6*33
$GPGSV,3,1,12,05,51,200,47,08,31,050,39,09,35,052,45,10,05,159,31*7F
$GPGSV,3,3,12,28,52,070,45,33,40,207,00,39,38,146,00,40,19,115,36*7E
$GPGGA,153056,3933.9539,N,00238.1012,E,2,04,2.5,3.3,M,,M,,*5F
$BGDBT,17.0,f,5.2,M,2.8,F*2A
$GPGSV,3,1,12,05,51,200,47,08,31,050,42,09,35,052,46,10,05,159,28*78
$GPGGA,153057,3933.9538,N,00238.1012,E,2,04,2.5,3.1,M,,M,,*5D
$GPGSV,3,3,12,28,52,070,41,33,40,207,00,39,38,146,00,40,19,115,37*7B
$GPGSV,3,3,12,28,52,070,43,33,40,207,00,39,38,146,00,40,19,115,38*76
$GPGSA,A,3,08,09,10,26,28,,,,,,,,1.9,1.1,1.6*33
$GPGSV,3,3,12,28,52,070,44,33,40,207,00,39,38,146,00,40,19,115,37*7E
$GPGGA,153100,3933.9551,N,00238.1011,E,2,05,1.9,2.7,M,,M,,*5B
$BGMWV,172,T,010.8,N,A*28
$GPGSV,3,1,12,05,51,200,47,08,31,050,39,09,35,052,46,10,05,159,35*78
$BGVPW,0.00,N,,M*4C
$GPGSV,3,3,12,28,52,070,44,33,40,207,00,39,38,146,00,40,19,115,35*7C
$GPGSV,3,1,12,05,51,200,46,08,31,050,39,09,35,052,45,10,05,159,32*7D
$GPGSA,A,3,08,09,26,28,,,,,,,,,2.5,1.4,2.1*3C
$GPGSV,3,2,12,15,43,308,43,21,05,299,00,24,20,255,37,26,73,011,43*75
$GPVTG,,T,190.1,M,0.1,N,0.2,K,D*02
$GPGSV,3,2,12,15,43,308,43,21,05,299,00,24,20,255,37,26,73,011,42*74
$GPGSV,3,2,12,15,43,308,42,21,05,299,00,24,20,255,35,26,73,011,44*71
$BGVWT,172,R,010.8,N,005.6,M,,K*71
$GPGSA,A,3,08,09,10,26,28,,,,,,,,1.9,1.1,1.6*33
$GPGGA,153101,3933.9554,N,00238.1011,E,2,05,1.9,2.6,M,,M,,*5E
$BGMWD,,T,257,M,010.8,N,005.6,M*7E
$GPGSV,3,1,12,05,51,200,47,08,31,050,39,09,35,052,46,10,05,159,34*79
$BGHDM,085,M*31
$GPGSA,A,3,08,09,26,28,,,,,,,,,2.5,1.4,2.1*3C
$GPVTG,,T,190.9,M,0.1,N,0.2,K,D*0A
$BGVPW,0.00,N,,M*4C
$GPGGA,153105,3933.9562,N,00238.1009,E,2,05,1.9,2.4,M,,M,,*54
$GPGSV,3,2,12,15,43,308,43,21,05,299,00,24,20,255,35,26,73,011,43*77
$BGHDM,084,M*30
$GPGSV,3,3,12,28,52,070,42,33,40,207,00,39,38,146,00,40,19,115,35*7A
$GPVTG,,T,190.5,M,0.1,N,0.2,K,D*06
$BGMWV,161,T,010.0,N,A*22
$GPGSV,3,2,12,15,43,308,45,21,05,299,00,24,20,255,34,26,73,011,43*70
$BGMWD,,T,252,M,010.7,N,005.5,M*77
$BGDBT,16.9,f,5.2,M,2.8,F*22
$BGHDM,084,M*30
$GPGSA,A,3,08,09,10,26,28,,,,,,,,1.9,1.1,1.6*33
$BGMTW,016,C*3A
$BGVHW,,T,084,M,00.00,N,,K*47
$GPGSA,A,3,08,09,26,28,,,,,,,,,2.5,1.4,2.1*3C
$BGVLW,8068.63,N,1765.49,N*46
$GPGGA,153104,3933.9559,N,00238.1009,E,2,05,1.9,2.5,M,,M,,*5C
$GPGSV,3,3,12,28,52,070,44,33,40,207,00,39,38,146,00,40,19,115,33*7A
$GPGSA,A,3,08,09,10,26,28,,,,,,,,1.9,1.1,1.6*33
$GPGSV,3,1,12,05,51,200,47,08,31,050,38,09,35,052,47,10,05,159,31*7C
$GPGSV,3,2,12,15,43,308,45,21,05,299,00,24,20,255,37,26,73,011,44*74
$BGVWR,167,R,011.2,N,005.7,M,,K*79
$BGVPW,0.00,N,,M*4C
$GPGSV,3,1,12,05,51,200,47,08,31,050,35,09,35,052,47,10,05,159,28*79
$BGMTW,016,C*3A
$BGMWV,172,R,011.6,N,A*21
$GPGSV,3,1,12,05,51,200,47,08,31,050,38,09,35,052,47,10,05,159,32*7F
$GPGSV,3,2,12,15,43,308,45,21,05,299,00,24,20,255,36,26,73,011,44*75
$GPVTG,,T,190.7,M,0.1,N,0.2,K,D*04
$BGVLW,8068.63,N,1765.49,N*46
$BGVWR,172,R,011.6,N,006.0,M,,K*7D
$BGMWV,167,R,011.2,N,A*21
$BGVWT,168,R,010.7,N,005.5,M,,K*76
$GPGGA,153103,3933.9555,N,00238.1009,E,2,04,2.5,2.5,M,,M,,*59
$BGVWT,161,R,010.0,N,005.1,M,,K*7C
$GPVTG,,T,191.4,M,0.1,N,0.2,K,D*06
$GPGSV,3,1,12,05,51,200,47,08,31,050,40,09,35,052,46,10,05,159,33*70
$GPVTG,,T,191.8,M,0.1,N,0.2,K,D*0A
$BGDBT,17.0,f,5.2,M,2.8,F*2A
$BGMWV,168,T,010.7,N,A*2C
$GPGGA,153102,3933.9557,N,00238.1010,E,2,05,1.9,2.6,M,,M,,*5F
$GPGSA,A,3,08,09,10,26,28,,,,,,,,1.9,1.1,1.6*33
$GPGSV,3,3,12,28,52,070,41,33,40,207,00,39,38,146,00,40,19,115,34*78
$GPGSV,3,3,12,28,52,070,45,33,40,207,00,39,38,146,00,40,19,115,35*7D
$GPGSV,3,3,12,28,52,070,41,33,40,207,00,39,38,146,00,40,19,115,33*7F
$GPGSA,A,3,08,09,10,26,28,,,,,,,,1.9,1.1,1.6*33
$BGVHW,,T,084,M,00.00,N,,K*47
$BGMWD,,T,246,M,010.0,N,005.1,M*71
$GPGSV,3,2,12,15,43,308,44,21,05,299,00,24,20,255,36,26,73,011,45*75
$BGVWR,163,R,011.6,N,006.0,M,,K*7D
$GPGSV,3,1,12,05,51,200,46,08,31,050,39,09,35,052,47,10,05,159,33*7E
$BGMTW,016,C*3A
$GPGSA,A,3,08,09,10,26,28,,,,,,,,1.9,1.1,1.6*33
$GPGGA,153106,3933.9566,N,00238.1009,E,2,05,1.9,2.4,M,,M,,*53
$BGDBT,17.1,f,5.2,M,2.8,F*2B
$GPGGA,153109,3933.9567,N,00238.1009,E,2,05,1.9,2.5,M,,M,,*5C
$BGMWV,164,R,011.1,N,A*21
$GPGGA,153107,3933.9570,N,00238.1010,E,2,05,1.9,2.5,M,,M,,*5C
$GPGSV,3,1,12,05,51,200,45,08,31,050,37,09,35,052,48,10,05,159,30*7F
$BGVHW,,T,084,M,00.00,N,,K*47
$BGVWT,158,R,010.5,N,005.4,M,,K*76
$GPVTG,,T,192.3,M,0.1,N,0.1,K,D*01
$BGMWV,163,R,011.5,N,A*22
$BGVPW,0.00,N,,M*4C
$BGVLW,8068.63,N,1765.49,N*46
$GPGSV,3,2,12,15,43,308,46,21,05,299,00,24,20,255,30,26,73,011,44*70
$GPGSV,3,2,12,15,43,308,44,21,05,299,00,24,20,255,37,26,73,011,45*74
$GPVTG,,T,192.0,M,0.1,N,0.1,K,D*02
$GPGSV,3,3,12,28,52,070,39,33,40,207,00,39,38,146,00,40,19,115,35*76
$BGMWD,,T,243,M,010.3,N,005.3,M*75
$GPGSV,3,2,12,15,43,308,45,21,05,299,00,24,20,255,35,26,73,011,43*71
$GPGSV,3,2,12,15,43,308,43,21,05,299,00,24,20,255,35,26,73,011,44*70
$BGMWV,159,T,010.1,N,A*28
$GPVTG,,T,192.2,M,0.1,N,0.2,K,D*03
$GPGSA,A,3,08,09,26,28,,,,,,,,,2.5,1.4,2.1*3C
$BGMWD,,T,242,M,010.0,N,005.1,M*75
$GPGSV,3,1,12,05,51,200,46,08,31,050,39,09,35,052,47,10,05,159,28*74
$BGVHW,,T,084,M,00.00,N,,K*47
$GPGSA,A,3,08,09,10,26,28,,,,,,,,1.9,1.1,1.6*33
$GPGSV,3,3,12,28,52,070,42,33,40,207,00,39,38,146,00,40,19,115,35*7A
$BGVWT,159,R,010.1,N,005.2,M,,K*75
$BGMWV,163,R,011.1,N,A*26
$BGVPW,0.00,N,,M*4C
$GPGSV,3,1,12,05,51,200,47,08,31,050,40,09,35,052,47,10,05,159,30*72
$BGVWT,159,R,010.0,N,005.1,M,,K*77
$BGDBT,16.9,f,5.2,M,2.8,F*22
$GPGSV,3,3,12,28,52,070,42,33,40,207,00,39,38,146,00,40,19,115,35*7A
$BGVPW,0.00,N,,M*4C
$BGVHW,,T,084,M,00.00,N,,K*47
$BGDBT,17.0,f,5.2,M,2.8,F*2A
$GPGSV,3,3,12,28,52,070,42,33,40,207,00,39,38,146,00,40,19,115,37*78
$BGMTW,016,C*3A
$BGMTW,016,C*3A
$BGMWD,,T,243,M,010.0,N,005.1,M*74
$BGVWR,163,R,011.1,N,005.7,M,,K*7E
$GPGGA,153108,3933.9567,N,00238.1010,E,2,04,2.5,2.5,M,,M,,*5B
$BGHDM,084,M*30
$BGVLW,8068.63,N,1765.49,N*46
$BGVLW,8068.63,N,1765.49,N*46
$BGMWV,159,T,010.0,N,A*29
$BGVWR,164,R,011.1,N,005.7,M,,K*79
$BGHDM,084,M*30
$GPGSA,A,3,08,09,10,26,28,,,,,,,,1.9,1.1,1.6*33
$BGMWV,158,T,010.5,N,A*2D
$BGHDM,084,M*30
$GPVTG,,T,191.8,M,0.1,N,0.2,K,D*0A
$GPVTG,,T,192.2,M,0.1,N,0.1,K,D*00
$BGVWR,163,R,012.5,N,006.4,M,,K*79
$BGVHW,,T,085,M,00.00,N,,K*46
$GPGSV,3,1,12,05,51,200,46,08,31,050,40,09,35,052,46,10,05,159,28*7B
$BGVLW,8068.63,N,1765.49,N*46
$BGMWD,,T,242,M,010.7,N,005.5,M*76
$BGVWT,158,R,011.4,N,005.8,M,,K*7A
$GPVTG,,T,192.2,M,0.1,N,0.1,K,D*00
$BGMTW,016,C*3A
$BGVPW,0.00,N,,M*4C
$GPGGA,153111,3933.9569,N,00238.1008,E,2,04,2.5,2.5,M,,M,,*54
$GPGSA,A,3,08,09,26,28,,,,,,,,,2.5,1.4,2.1*3C
$GPGSV,3,1,12,05,51,200,46,08,31,050,41,09,35,052,46,10,05,159,29*7B
$BGMWV,158,T,011.2,N,A*2B
$GPGSA,A,3,08,09,26,28,,,,,,,,,2.5,1.4,2.1*3C
$BGDBT,17.1,f,5.2,M,2.8,F*2B
$GPGSV,3,3,12,28,52,070,42,33,40,207,00,39,38,146,00,40,19,115,36*79
$GPGSA,A,3,08,09,10,26,28,,,,,,,,1.9,1.1,1.6*33
$BGVLW,8068.63,N,1765.49,N*46
$BGMTW,016,C*3A
$BGVHW,,T,085,M,00.00,N,,K*46
$BGVPW,0.00,N,,M*4C
$GPGSV,3,2,12,15,43,308,43,21,05,299,00,24,20,255,37,26,73,011,45*73
$BGMWD,,T,243,M,011.3,N,005.8,M*7F
$BGMWV,163,R,012.5,N,A*21
$GPGSV,3,3,12,28,52,070,41,33,40,207,00,39,38,146,00,40,19,115,36*7A
$GPVTG,,T,192.7,M,0.1,N,0.1,K,D*05
$GPGGA,153112,3933.9566,N,00238.1008,E,2,04,2.5,2.5,M,,M,,*58
$BGMWV,158,T,011.4,N,A*2D
$GPGGA,153110,3933.9571,N,00238.1009,E,2,05,1.9,2.5,M,,M,,*53
$BGDBT,17.1,f,5.2,M,2.9,F*2A
$BGVWR,163,R,012.2,N,006.2,M,,K*78
$GPGSV,3,3,12,28,52,070,41,33,40,207,00,39,38,146,00,40,19,115,36*7A
$BGVWT,158,R,011.2,N,005.7,M,,K*73
$GPGSV,3,2,12,15,43,308,43,21,05,299,00,24,20,255,41,26,73,011,44*73
$GPGSV,3,3,12,28,52,070,41,33,40,207,00,39,38,146,00,40,19,115,37*7B
$GPGSV,3,1,12,05,51,200,47,08,31,050,43,09,35,052,45,10,05,159,31*72
$GPGSV,3,2,12,15,43,308,45,21,05,299,00,24,20,255,35,26,73,011,44*76
$BGMWV,163,R,012.0,N,A*24
$GPGSV,3,1,12,05,51,200,47,08,31,050,38,09,35,052,46,10,05,159,33*7F
$GPVTG,,T,192.4,M,0.1,N,0.1,K,D*06
$GPGGA,153113,3933.9573,N,00238.1008,E,2,05,1.9,2.5,M,,M,,*53
$GPGSV,3,2,12,15,43,308,41,21,05,299,00,24,20,255,38,26,73,011,43*78
$BGHDM,085,M*31
$BGHDM,085,M*31
$GPVTG,,T,193.9,M,0.1,N,0.1,K,D*0A
$BGMWD,,T,241,M,011.4,N,005.9,M*7B
$GPGSV,3,2,12,15,43,308,45,21,05,299,00,24,20,255,42,26,73,012,43*72
$BGVLW,8068.63,N,1765.49,N*46
$GPGGA,153116,3933.9593,N,00238.1009,E,2,05,1.9,2.7,M,,M,,*5B
$GPGGA,153118,3933.9582,N,00238.1009,E,2,04,2.5,2.8,M,,M,,*54
$GPVTG,,T,193.7,M,0.1,N,0.2,K,D*07
$GPVTG,,T,193.3,M,0.1,N,0.1,K,D*00
$BGVHW,,T,085,M,00.00,N,,K*46
$GPGSV,3,2,12,15,43,308,42,21,05,299,00,24,20,255,40,26,73,011,43*74
$GPGSV,3,3,12,28,52,070,42,33,40,207,00,39,38,146,00,40,19,115,37*78
$BGVPW,0.00,N,,M*4C
$BGMWV,154,T,011.2,N,A*27
$GPVTG,,T,192.8,M,0.1,N,0.2,K,D*09
$GPGSV,3,3,12,28,52,070,43,33,40,207,00,39,38,146,00,40,19,115,37*79
$GPGSA,A,3,08,09,26,28,,,,,,,,,2.5,1.4,2.1*3C
$BGMWV,157,T,011.6,N,A*20
$GPGSV,3,1,12,05,51,200,46,08,31,050,42,09,35,052,45,10,05,159,34*77
$GPGSV,3,3,12,28,52,070,43,33,40,207,00,39,38,146,00,40,19,115,37*79
$GPGGA,153115,3933.9586,N,00238.1008,E,2,05,1.9,2.6,M,,M,,*5C
$GPGSA,A,3,08,09,10,26,28,,,,,,,,1.9,1.1,1.6*33
$GPGSV,3,1,12,05,51,200,46,08,31,050,41,09,34,052,45,10,05,159,31*70
$BGMTW,016,C*3A
$GPGGA,153119,3933.9577,N,00238.1009,E,2,04,2.5,2.8,M,,M,,*5F
$BGHDM,086,M*32
$GPGSV,3,1,12,05,51,200,46,08,31,050,42,09,34,052,44,10,05,159,30*73
$GPGSV,3,3,12,28,52,070,43,33,40,207,00,39,38,146,00,40,19,115,37*79
$BGMWV,163,R,012.7,N,A*23
$GPGGA,153114,3933.9579,N,00238.1008,E,2,05,1.9,2.5,M,,M,,*5E
$GPGSV,3,2,12,15,43,308,38,21,05,299,00,24,20,255,39,26,73,011,43*77
$BGVHW,,T,086,M,00.00,N,,K*45
$GPGSV,3,2,12,15,43,308,43,21,05,299,00,24,20,255,42,26,73,011,43*77
$GPGSA,A,3,08,09,10,26,28,,,,,,,,1.9,1.1,1.6*33
$GPGSV,3,3,12,28,52,070,42,33,40,207,00,39,38,146,00,40,19,115,38*77
$GPVTG,,T,194.4,M,0.1,N,0.1,K,D*00
$BGVWT,154,R,011.2,N,005.7,M,,K*7F
$BGVLW,8068.63,N,1765.49,N*46
$BGVWR,163,R,012.7,N,006.5,M,,K*7A
$BGMWD,,T,243,M,011.6,N,006.0,M*71
$GPGSA,A,3,08,09,26,28,,,,,,,,,2.5,1.4,2.1*3C
$GPGGA,153117,3933.9588,N,00238.1009,E,2,04,2.5,2.8,M,,M,,*51
$BGVWR,163,R,012.7,N,006.5,M,,K*7A
$BGVPW,0.00,N,,M*4C
$BGMTW,016,C*3A
$GPGSV,3,3,12,28,52,070,43,33,40,207,00,39,38,146,00,40,19,115,38*76
$GPGSV,3,1,12,05,51,200,47,08,31,050,42,09,35,052,45,10,05,159,33*71
$GPGSV,3,1,12,05,51,200,47,08,31,050,40,09,35,052,44,10,05,159,31*70
$BGDBT,17.0,f,5.2,M,2.8,F*2A
$GPGSA,A,3,08,09,10,26,28,,,,,,,,1.9,1.1,1.6*33
$GPGSA,A,3,08,09,26,28,,,,,,,,,2.5,1.4,2.1*3C
$BGHDM,085,M*31
$GPGSV,3,2,12,15,43,308,40,21,05,299,00,24,20,255,42,26,73,012,43*77
$GPGSV,3,2,12,15,43,308,42,21,05,299,00,24,20,255,40,26,73,011,43*74
$BGVWT,157,R,011.6,N,006.0,M,,K*7C
$BGDBT,17.0,f,5.2,M,2.8,F*2A
$GPGSV,3,1,12,05,51,200,47,08,31,050,41,09,35,052,44,10,05,159,30*70
$GPGSA,A,3,08,09,10,26,28,,,,,,,,1.9,1.1,1.6*33
$GPVTG,,T,192.7,M,0.1,N,0.1,K,D*05
$BGMWV,163,R,012.7,N,A*23
$BGDBT,17.0,f,5.2,M,2.8,F*2A
$BGMWV,160,R,012.2,N,A*25
$BGMWD,,T,238,M,011.1,N,005.7,M*7E
$GPGSV,3,3,12,28,52,070,43,33,40,207,00,39,38,146,00,40,19,115,37*79
$GPGGA,153120,3933.9591,N,00238.1010,E,2,05,1.9,3.0,M,,M,,*52
$GPGSV,3,2,12,15,43,308,43,21,05,299,00,24,20,255,43,26,73,012,44*72
$GPGSV,3,3,12,28,52,070,44,33,40,207,00,39,38,146,00,40,19,115,36*7F
$BGHDM,086,M*32
$BGMWV,153,T,011.1,N,A*23
$BGVWR,160,R,012.2,N,006.3,M,,K*7A
$GPGSA,A,3,08,09,10,26,28,,,,,,,,1.9,1.1,1.6*33
$GPGSA,A,3,08,09,10,26,28,,,,,,,,1.9,1.1,1.6*33
$BGVWT,153,R,011.0,N,005.6,M,,K*7B
$GPGSV,3,2,12,15,43,308,43,21,05,299,00,24,20,255,43,26,73,012,43*75
$BGVHW,,T,086,M,00.00,N,,K*45
$GPGSA,A,3,08,09,10,26,28,,,,,,,,1.9,1.1,1.6*33
$BGMWV,153,T,011.0,N,A*22
$BGHDM,086,M*32
$GPVTG,,T,191.0,M,0.2,N,0.3,K,D*00
$BGVLW,8068.63,N,1765.49,N*46
$GPVTG,,T,190.8,M,0.1,N,0.3,K,D*0A
$GPGSV,3,3,12,28,52,070,41,33,40,207,00,39,38,146,00,40,19,115,38*74
$BGVWT,153,R,011.1,N,005.7,M,,K*7B
$GPGGA,153121,3933.9598,N,00238.1011,E,2,05,1.9,3.1,M,,M,,*5A
$BGVPW,0.00,N,,M*4C
$GPVTG,,T,191.5,M,0.2,N,0.3,K,D*05
$GPGSV,3,1,12,05,51,200,47,08,31,050,41,09,34,052,44,10,05,159,33*72
$BGMTW,016,C*3A
$BGVWR,159,R,012.2,N,006.3,M,,K*70
$GPGSV,3,3,12,28,52,070,44,33,40,207,00,39,38,146,00,40,19,115,37*7E
$GPGGA,153122,3933.9605,N,00238.1011,E,2,05,1.9,3.3,M,,M,,*5C
$GPGSV,3,1,12,05,51,200,48,08,31,050,41,09,34,052,46,10,05,159,32*7E
$BGVPW,0.00,N,,M*4C
$BGMTW,016,C*3A
$GPVTG,,T,190.5,M,0.1,N,0.2,K,D*06
$GPGGA,153123,3933.9608,N,00238.1011,E,2,05,1.9,3.5,M,,M,,*56
$BGVHW,,T,086,M,00.00,N,,K*45
$BGVLW,8068.63,N,1765.49,N*46
$GPGSV,3,1,12,05,51,200,46,08,31,050,43,09,34,052,44,10,05,159,32*70
$BGMWV,159,R,012.2,N,A*2F
$BGMWD,,T,239,M,011.0,N,005.6,M*7F
$GPGSA,A,3,08,09,10,26,28,,,,,,,,1.9,1.1,1.6*33
$GPGSV,3,1,12,05,51,200,47,08,31,050,41,09,34,052,44,10,05,159,32*73
$BGDBT,17.0,f,5.2,M,2.8,F*2A
$GPGSV,3,2,12,15,43,308,40,21,05,299,00,24,20,255,42,26,73,012,44*70
$GPGSV,3,2,12,15,43,308,41,21,05,299,00,24,20,255,41,26,73,012,43*75
$BGVWT,158,R,010.2,N,005.2,M,,K*77
$GPVTG,,T,191.1,M,0.1,N,0.2,K,D*03
$BGVPW,0.00,N,,M*4C
$BGMWV,163,R,011.0,N,A*27
$GPGSV,3,2,12,15,43,308,43,21,05,299,00,24,20,255,40,26,73,012,43*76
$GPGSV,3,3,12,28,52,070,42,33,40,207,00,39,38,146,00,40,19,115,38*77
$BGVWR,162,R,011.7,N,006.0,M,,K*7D
$BGMTW,016,C*3A
$GPGSV,3,3,12,28,52,070,42,33,40,207,00,39,38,146,00,40,19,115,36*79
$BGMWD,,T,242,M,010.6,N,005.4,M*76
$GPGSV,3,1,12,05,51,200,46,08,31,050,43,09,34,052,44,10,05,159,36*74
$BGVHW,,T,086,M,00.00,N,,K*45
$GPGSV,3,2,12,15,43,308,37,21,05,299,00,24,20,255,40,26,73,012,44*72
$BGDBT,17.2,f,5.2,M,2.9,F*29
$GPVTG,,T,192.6,M,0.1,N,0.2,K,D*07
$GPVTG,,T,191.8,M,0.1,N,0.2,K,D*0A
$BGHDM,086,M*32
$GPGSV,3,2,12,15,43,308,44,21,05,299,00,24,20,255,40,26,73,012,42*70
$GPGSV,3,1,12,05,51,200,47,08,31,050,40,09,34,052,44,10,05,159,35*75
$GPGSA,A,3,08,09,10,26,28,,,,,,,,1.9,1.1,1.6*33
$BGVLW,8068.63,N,1765.49,N*46
$GPVTG,,T,190.5,M,0.1,N,0.2,K,D*06
$BGVLW,8068.63,N,1765.49,N*46
$BGMWV,162,R,011.7,N,A*21
$GPGSV,3,2,12,15,43,308,41,21,05,299,00,24,20,255,41,26,73,012,42*74
$BGMWV,158,T,010.2,N,A*2A
$BGVPW,0.00,N,,M*4C
$BGVHW,,T,085,M,00.00,N,,K*46
$GPGGA,153125,3933.9615,N,00238.1010,E,2,05,1.9,3.9,M,,M,,*51
$BGVWT,156,R,010.6,N,005.4,M,,K*7B
$GPGSA,A,3,08,09,10,26,28,,,,,,,,1.9,1.1,1.6*33
$BGDBT,17.0,f,5.2,M,2.8,F*2A
$BGHDM,085,M*31
$GPGSA,A,3,08,09,10,26,28,,,,,,,,1.9,1.1,1.6*33
$BGMTW,016,C*3A
$GPGSV,3,1,12,05,51,200,47,08,31,050,44,09,34,052,45,10,05,159,33*76
$GPGSA,A,3,08,09,10,26,28,,,,,,,,1.9,1.1,1.6*33
$BGVWR,163,R,011.0,N,005.6,M,,K*7E
$GPGGA,153127,3933.9621,N,00238.1009,E,2,05,1.9,4.3,M,,M,,*51
$GPGSV,3,3,12,28,52,070,42,33,40,207,00,39,38,146,00,40,19,115,36*79
$BGMWV,156,T,010.6,N,A*20
$GPGGA,153124,3933.9612,N,00238.1010,E,2,05,1.9,3.7,M,,M,,*59
$GPGSV,3,1,12,05,51,200,47,08,31,050,42,09,34,052,46,10,05,159,30*70
$BGMWD,,T,244,M,010.2,N,005.2,M*72
$GPGSV,3,3,12,28,52,070,42,33,40,207,00,39,38,146,00,40,19,115,39*76
$GPGGA,153126,3933.9618,N,00238.1009,E,2,05,1.9,4.2,M,,M,,*5B
$GPGGA,153131,3933.9626,N,00238.1011,E,2,05,1.9,5.1,M,,M,,*5B
$GPGSV,3,3,12,28,52,070,45,33,40,207,00,39,38,146,00,40,19,115,38*70
$BGVPW,0.00,N,,M*4C
$BGMWD,,T,243,M,009.7,N,005.0,M*7A
$BGMTW,016,C*3A
$BGMWV,156,T,009.5,N,A*2B
$GPGSV,3,1,12,05,51,200,46,08,31,050,41,09,34,052,46,10,05,159,35*77
$BGHDM,084,M*30
$GPGSA,A,3,08,09,10,26,28,,,,,,,,1.9,1.1,1.6*33
$BGMWV,162,R,010.5,N,A*22
$BGVWR,163,R,010.8,N,005.6,M,,K*77
$GPGSA,A,3,08,09,10,26,28,,,,,,,,1.9,1.1,1.6*33
$BGVHW,,T,084,M,00.00,N,,K*47
$BGHDM,085,M*31
$BGVWT,156,R,009.5,N,004.8,M,,K*7D
$BGVLW,8068.63,N,1765.49,N*46
$BGVHW,,T,084,M,00.00,N,,K*47
$BGVWT,157,R,009.3,N,004.8,M,,K*7A
$GPGGA,153128,3933.9624,N,00238.1008,E,2,05,1.9,4.5,M,,M,,*5C
$GPGSV,3,1,12,05,51,200,47,08,31,050,42,09,34,052,46,10,05,159,36*76
$BGVPW,0.00,N,,M*4C
$BGVHW,,T,085,M,00.00,N,,K*46
$GPVTG,,T,193.7,M,0.1,N,0.2,K,D*07
$GPGSA,A,3,08,09,10,26,28,,,,,,,,1.9,1.1,1.6*33
$BGVWT,158,R,009.7,N,005.0,M,,K*78
$BGDBT,17.0,f,5.2,M,2.8,F*2A
$GPGSV,3,3,12,28,52,070,43,33,40,207,00,39,38,146,00,40,19,115,35*7B
$BGMWD,,T,241,M,009.5,N,004.8,M*73
$BGVWR,162,R,010.4,N,005.3,M,,K*7F
$GPGSV,3,2,12,15,43,308,41,21,05,299,00,24,20,255,39,26,73,012,43*7A
$BGDBT,17.0,f,5.2,M,2.8,F*2A
$GPVTG,,T,193.7,M,0.1,N,0.2,K,D*07
$GPVTG,,T,194.6,M,0.1,N,0.2,K,D*01
$BGMWV,163,R,010.8,N,A*2E
$GPGSV,3,1,12,05,51,200,46,08,31,050,43,09,34,052,44,10,05,159,37*75
$BGVPW,0.00,N,,M*4C
$BGMWD,,T,241,M,009.3,N,004.8,M*75
$GPGSV,3,2,12,15,43,308,44,21,05,299,00,24,20,255,37,26,73,012,43*71
$BGMWV,157,T,009.3,N,A*2C
$GPGGA,153129,3933.9625,N,00238.1009,E,2,05,1.9,4.8,M,,M,,*50
$GPGSV,3,3,12,28,52,070,42,33,40,207,00,39,38,146,00,40,19,115,38*77
$GPGSV,3,3,12,28,52,070,42,33,40,207,00,39,38,146,00,40,19,115,39*76
$BGVWR,162,R,010.5,N,005.4,M,,K*79
$GPGSV,3,1,12,05,51,200,46,08,31,050,41,09,34,052,45,10,05,159,37*76
$BGVLW,8068.63,N,1765.49,N*46
$GPGSV,3,2,12,15,43,308,41,21,05,299,00,24,20,255,32,26,73,012,44*76
$BGMWV,162,R,010.4,N,A*23
$GPGGA,153130,3933.9626,N,00238.1010,E,2,05,1.9,4.9,M,,M,,*52
$GPVTG,,T,194.2,M,0.1,N,0.2,K,D*05
$BGDBT,17.1,f,5.2,M,2.8,F*2B
$BGMWV,158,T,009.7,N,A*27
$BGMTW,016,C*3A
$BGHDM,085,M*31
$BGMTW,016,C*3A
$GPGSA,A,3,08,09,10,26,28,,,,,,,,1.9,1.1,1.6*33
$BGVLW,8068.63,N,1765.49,N*46
$GPGSV,3,2,12,15,43,308,42,21,05,299,00,24,20,255,31,26,73,012,42*70
$GPGSV,3,2,12,15,43,308,43,21,05,299,00,24,20,255,35,26,73,012,42*75
$GPGSV,3,1,12,05,51,200,46,08,31,050,40,09,34,052,46,10,05,159,32*71
$GPGGA,153134,3933.9626,N,00238.1012,E,2,05,1.9,5.8,M,,M,,*54
$GPGSV,3,3,12,28,52,070,44,33,40,207,00,39,38,146,00,40,19,115,36*7F
$GPGGA,153135,3933.9626,N,00238.1012,E,2,05,1.9,5.9,M,,M,,*54
$BGMWV,151,T,009.3,N,A*2A
$GPGSV,3,3,12,28,52,070,43,33,40,207,00,39,38,146,00,40,19,115,35*7B
$GPGSA,A,3,08,09,10,26,28,,,,,,,,1.9,1.1,1.6*33
$GPVTG,,T,195.1,M,0.1,N,0.1,K,D*04
$BGMWD,,T,238,M,009.5,N,004.9,M*7C
$GPGSV,3,1,12,05,51,200,46,08,31,050,40,09,34,052,46,10,05,159,35*76
$BGVLW,8068.63,N,1765.49,N*46
$GPGSA,A,3,08,09,10,26,28,,,,,,,,1.9,1.1,1.6*33
$GPGSV,3,2,12,15,43,308,43,21,05,299,00,24,20,255,30,26,73,012,44*76
$BGMWV,161,R,010.7,N,A*23
$GPVTG,,T,195.0,M,0.1,N,0.2,K,D*06
$BGVHW,,T,084,M,00.00,N,,K*47
$BGDBT,16.9,f,5.1,M,2.8,F*21
$GPGSV,3,1,12,05,51,200,46,08,31,050,40,09,34,052,46,10,05,159,36*75
$BGVWR,160,R,010.6,N,005.4,M,,K*78
$BGVPW,0.00,N,,M*4C
$GPGSA,A,3,08,09,10,26,28,,,,,,,,1.9,1.1,1.6*33
$BGMTW,016,C*3A
$GPGGA,153133,3933.9626,N,00238.1011,E,2,05,1.9,5.6,M,,M,,*5E
$BGVLW,8068.63,N,1765.49,N*46
$BGHDM,084,M*30
$BGVWR,159,R,010.7,N,005.5,M,,K*72
$BGVWT,154,R,009.5,N,004.9,M,,K*7E
$GPGSA,A,3,08,09,10,26,28,,,,,,,,1.9,1.1,1.6*33
$GPGGA,153132,3933.9626,N,00238.1011,E,2,05,1.9,5.3,M,,M,,*5A
$BGVWT,151,R,009.3,N,004.8,M,,K*7C
$BGVHW,,T,084,M,00.00,N,,K*47
$BGHDM,084,M*30
$GPGSV,3,2,12,15,43,308,42,21,05,299,00,24,20,255,34,26,73,012,44*73
$GPGSV,3,1,12,05,51,200,47,08,31,050,41,09,34,052,45,10,05,159,33*73
$BGMTW,016,C*3A
$GPGSV,3,3,12,28,52,070,44,33,40,207,00,39,38,146,00,40,19,115,36*7F
$BGMWD,,T,236,M,009.3,N,004.8,M*75
$BGDBT,16.9,f,5.2,M,2.8,F*22
$BGMWV,159,R,010.5,N,A*2A
$GPGSV,3,3,12,28,52,070,44,33,40,207,00,39,38,146,00,40,19,115,38*71
$GPGSV,3,2,12,15,43,308,44,21,05,299,00,24,20,255,32,26,73,012,43*74
$GPVTG,,T,195.0,M,0.1,N,0.1,K,D*05
$GPVTG,,T,194.8,M,0.1,N,0.1,K,D*0C
$BGMWV,154,T,009.5,N,A*29
$BGVPW,0.00,N,,M*4C
$GPGGA,153137,3933.9626,N,00238.1011,E,2,05,1.9,6.2,M,,M,,*5D
$BGMWV,150,T,010.9,N,A*29
$BGVPW,0.00,N,,M*4C
$GPGSA,A,3,08,09,10,26,28,,,,,,,,1.9,1.1,1.6*33
$GPGSA,A,3,08,09,10,26,28,,,,,,,,1.9,1.1,1.6*33
$BGVWR,156,R,011.8,N,006.0,M,,K*75
$BGMWV,150,T,010.4,N,A*24
$BGHDM,084,M*30
$BGMTW,016,C*3A
$BGMWV,156,R,012.1,N,A*23
$GPGGA,153139,3933.9625,N,00238.1011,E,2,05,1.9,6.4,M,,M,,*56
$BGDBT,17.0,f,5.2,M,2.8,F*2A
$GPGSV,3,2,12,15,43,308,43,21,05,299,00,24,20,255,30,26,73,012,44*76
$BGVLW,8068.63,N,1765.49,N*46
$BGMWD,,T,234,M,010.4,N,005.3,M*72
$GPGSV,3,3,12,28,52,070,43,33,40,207,00,39,38,146,00,40,19,115,38*76
$GPGSV,3,1,12,05,51,200,47,08,31,050,40,09,34,052,45,10,05,159,37*76
$GPVTG,,T,195.8,M,0.1,N,0.1,K,D*0D
$BGDBT,16.9,f,5.1,M,2.8,F*21
$GPGGA,153136,3933.9626,N,00238.1011,E,2,05,1.9,6.1,M,,M,,*5F
$GPGGA,153138,3933.9626,N,00238.1011,E,2,05,1.9,6.3,M,,M,,*53
$BGVHW,,T,084,M,00.00,N,,K*47
$BGMWD,,T,234,M,010.9,N,005.6,M*7A
$GPGSV,3,1,12,05,51,200,46,08,31,050,40,09,34,052,46,10,05,159,36*75
$GPGSV,3,2,12,15,43,308,44,21,05,299,00,24,20,255,33,26,73,012,43*75
$GPGSA,A,3,08,09,10,26,28,,,,,,,,1.9,1.1,1.6*33
$BGVWT,150,R,010.4,N,005.3,M,,K*78
$GPGSV,3,1,12,05,51,200,47,08,31,050,42,09,34,052,47,10,05,159,35*74
$GPGSV,3,1,12,05,51,200,47,08,31,050,38,09,34,052,44,10,05,159,35*7A
$BGVWR,157,R,012.5,N,006.4,M,,K*7E
$BGMWV,157,R,011.5,N,A*25
$BGVHW,,T,084,M,00.00,N,,K*47
$BGVPW,0.00,N,,M*4C
$GPVTG,,T,196.5,M,0.1,N,0.1,K,D*03
$BGMTW,016,C*3A
$GPVTG,,T,195.3,M,0.1,N,0.1,K,D*06
$GPGSV,3,3,12,28,52,070,44,33,40,207,00,39,38,146,00,40,19,115,36*7F
$GPGSV,3,3,12,28,52,070,44,33,40,207,00,39,38,146,00,40,19,115,38*71
$GPVTG,,T,198.2,M,0.1,N,0.1,K,D*0A
$GPGSV,3,2,12,15,43,308,42,21,05,299,00,24,20,255,35,26,73,012,43*75
$BGVWT,150,R,010.9,N,005.6,M,,K*70
