01:00:01.119;I;$POSMST,Start NMEA Logger,V 0.1.12*01
01:00:00.420;A;$GPGSV,3,1,11,02,28,050,,05,07,089,,06,01,028,-1,10,09,043,*6B
01:00:00.294;B;яяЗ?яя?яБАПяь>яПЏПя???АП<?яя?щП>ПБяряр?П?я?яяя0яя?шрЏПяП?Ауяяяяяяяяяя?яПя?сГїП
01:00:01.186;A;$GPGSV,3,2,11,12,25,107,,14,03,224,,21,12,185,,23,06,342,*76
01:00:01.190;A;$GPGSC
01:00:01.184;B;АюяяП?яяяПяяя?яяяяяя?Пяя?яПяяяяПяяПяяяяяяяяяшяя‡язяясяяя?яяяПяяяу?а‡яЏЏяяЏяяП
01:00:01.195;A;$PGRMM,Potsdam*39
01:00:01.229;A;$GPRTE,1,1,c,*37
01:00:01.268;A;$GPAPB,A,A,,,N,V,V,,,,,,,,A*67
01:00:01.222;B;Г?я?яагџяряя?рѓяПяяяуЗ‡ЃяяяяяюяППяязПяПП?Пяр0ПЃПяяуЗгяѓяяюьПшяяПГП?юрсПяяБ?П
01:00:01.337;A;$SDDBT,12.6,f,3.85,M,2.10,F*3E
01:00:01.429;I;$POSMGYR,-265,635,-44*60
01:00:01.429;I;$POSMACC,2364,-16912,272*48
01:00:01.429;I;$POSMVCC,5143,4943*5E
01:00:02.071;A;$GPRMC,130445,A,5218.6216,N,01018.3860,E,6.3,94.1,130714,2.1,E,A*2E
01:00:01.391;B;шМАюсяяшЗяяюьяяьяьяПяььяѓ?яьГяьуьяяьяьяяПБ<яяяьяу|яяГяяяяьѓяюяяящяуя‡џьяя
01:00:02.220;A;$GPRMB,A,,,,,,,,,,,,V,A*1C
01:00:02.230;B;ПЃ???ППП?ПяяяПgря?яяья‡я‡шярБя?яшяПюья?яяяяяяяяя?я??ря?шяяяюП>Бяя?я?я?яюяюяяяя
01:00:02.279;A;$GPGGA,130445,5218.6216,N,01018.3860,E,1,11,1.6,51.9,M,44.7,M,,*70
01:00:02.432;I;$POSMGYR,45,413,387*6A
01:00:02.432;I;$POSMACC,2808,-16240,728*4F
01:00:02.430;I;$POSMVCC,5143,4943*5E
01:00:02.422;A;$GPGSV,3,1,11,02,28,050,,05,07,089,,06,01,028,-1,10,09,043,*6B
01:00:02.399;B;шяс?яяяяяушџьяяьяяяБ??я?рГАр?ЖАяП??Пяя?АА?П?я8?яБяяяАрО>П?я?яюПяяяяяяяш‡яг
01:00:02.556;A;$GPGSV,3,2,11,12,25,107,,14,03,224,,21,12,185,,23,06,342,*76
01:00:02.569;B;яяяяПББП>ьря>?яяЗрПяшряГ0?ьяя?яяП?яря?яяряяяяя0яЗяя<Зяяуш‡а‡яxр?я?я?яяьяПяяяяя?р
01:00:02.689;A;$GPGSV,3,3,11,25,62,108,,29,80,217,,31,55,281,*4D
01:00:02.794;A;$GPGLL,5218.6216,N,01018.3860,E,130445,A,A*48
01:00:02.738;B;я?яяяя0яяшПяяБя?щПГя?Пяяясьяшяшяя?яГ??ряь>яПЏя?я?БяП??яяя‡яюГАшяяряряьяАсья‡яяя
01:00:02.892;A;$GPBOD,,T,,M,,*47
01:00:02.934;A;$GPBWC,130445,,,,,,T,,M,,N,,A*7C
01:00:02.905;B;яяя?Пс?ряшЗяьш‡яьзя?БГА?ящППяяяПзрряяПряя~яяѓяш‡яз‡яюяПяяшП>юя>яЏяяяГ?ЏяяБП?яЊ
01:00:03.006;A;$GPVTG,94.1,T,91.9,M,6.3,N,11.7,K,A*1C
01:00:03.089;A;$PGRME,3.3,M,4.0,M,5.2,M*2D
01:00:03.149;A;$PGRMZ,170,f,3*1D
01:00:03.190;A;$PGRMM,Potsdam*39
01:00:03.075;B;яЃя?яяяяаяcсяяьПярюП?яя?я?щПяПяяя‡яшаxгяярБшяр‡яГяяяяяя‡џяя?яЏ‡|яюяьяся‡яя
01:00:03.231;A;$GPRTE,1,1,c,*37
01:00:03.269;A;$GPAPB,A,A,,,N,V,V,,,,,,,,A*67
01:00:03.336;A;$SDDBT,12.1,f,3.68,M,2.01,F*3A
01:00:03.432;I;$POSMGYR,-48,-222,-83*79
01:00:03.432;I;$POSMACC,3172,-16028,180*42
01:00:03.432;I;$POSMVCC,5143,4943*5E
01:00:03.241;B;я?я>яяяПя8ся‡џяяяяяПряяяяя0Пяяр0ярю?яяюяшџшяяПяГПяяя?ГПЗАПЋяГряя?яяГЃсяяшЖя
01:00:04.074;A;$GPRMC,130447,A,5218.6213,N,01018.3916,E,6.3,93.8,130714,2.1,E,A*27
01:00:04.084;B;?>ь?яяЗрЃяяГБ?рЗяБГяЏяАяА>?П?яяя?яя??Г0я??яПю<яЗяярГПяя‡Пя<?яя?‡аяяяяяПрря?П?р
01:00:04.219;A;$GPRMB,A,,,,,,,,,,,,V,A*1C
01:00:04.279;A;$GPGGA,130447,5218.6213,N,01018.3916,E,1,11,1.6,52.0,M,44.7,M,,*7D
01:00:04.253;B;яр0яяПяьяьяяяяш‡юП??АшяЗПяяяяПяГяьяяПя?яБ?П?яБ??щяяяБяПБяшяЗя?яяс???я?ПЋяяПЗяс
01:00:04.434;I;$POSMGYR,-205,-185,1197*64
01:00:04.434;I;$POSMACC,420,-16432,-20*6A
01:00:04.434;I;$POSMVCC,5143,4943*5E
01:00:04.424;A;$GPGSV,3,1,11,02,28,050,,05,07,089,,06,01,028,-1,10,09,043,*6B
01:00:04.421;B;ш‡а‡??яяяяяяяь?ГяПяЗяяя?щя?яяААя?Пя?яяБяяяАяяБя?яяяБяАяяП<яясш‡‡ПяПяПБюП??
01:00:04.556;A;$GPGSV,3,2,11,12,25,107,,14,03,224,,21,12,185,,23,06,342,*76
01:00:04.590;B;Пьяя?яяППя8П?яПяя?П0ьБПБярБяяП?яьяАшПяяь?Мя?юя?‡аягяПГя<П?>яяЖя?яяБя??я??р?я?ьяя
01:00:04.686;A;$GPGSV,3,3,11,25,62,108,,29,80,217,,31,55,281,*4D
01:00:04.796;A;$GPGLL,5218.6213,N,01018.3916,E,130447,A,A*4F
01:00:04.758;B;яПьБя9?яь?яря?яяяяяаxЏяя?я>?ПЗ?яьяЏя?>АяяяГ???П†ПБГ?8шЗПяяяьш‡яяш‡џьяяяяшяяюяПяЗ
01:00:04.894;A;$GPBOD,,T,,M,,*47
01:00:04.934;A;$GPBWC,130447,,,,,,T,,M,,N,,A*7E
01:00:05.006;A;$GPVTG,93.8,T,91.7,M,6.3,N,11.7,K,A*1C
01:00:04.926;B;Зсуяяяѓзя?яяяяя?ряП?яязяряяяЏррюьЗяяушязя‡ПяьП?ПзяБюПЗПЏяшяГ?рПя?яЗяурЃМяѓяу?яя
01:00:05.090;A;$PGRME,3.3,M,4.0,M,5.2,M*2D
01:00:05.150;A;$PGRMZ,171,f,3*1C
01:00:05.192;A;$PGRMM,Potsdam*39
01:00:05.094;B;яяяПяПГрЏр?П??юП?П?рЏяГяяяяяшяьПяя>яш?ГьБясьяяяяяЏПџряяГБяяшяяџяяяярБПяяуГЗ
01:00:05.231;A;$GPRTE,1,1,c,*37
01:00:05.268;A;$GPAPB,A,A,,,N,V,V,,,,,,,,A*67
01:00:05.336;A;$SDDBT,11.8,f,3.61,M,1.97,F*35
01:00:05.436;I;$POSMGYR,-116,-68,121*6B
01:00:05.436;I;$POSMACC,2232,-16028,200*4F
01:00:05.436;I;$POSMVCC,5143,4943*5E
01:00:05.263;B;сшшџяяяППЃяПр?яПяППря0рППяу?ясяшгяшяяюП?П‡Пяршяяя?я??яряяящсяяшюяю?><?я?я0Ѓ
01:00:06.072;A;$GPRMC,130449,A,5218.6212,N,01018.3973,E,6.2,89.5,130714,2.1,E,A*2C
01:00:06.104;B;яЗяяяя?яяяяЏяяюАБАя?юяГя‡ПяряП??р?ПБ?Аш?ш?ярюя‡ПяГяяяшяџяя?яяяряяПППяя?яяю<яѓ
01:00:06.219;A;$GPRMB,A,,,,,,,,,,,,V,A*1C
01:00:06.277;A;$GPGGA,130449,5218.6212,N,01018.3973,E,1,11,1.6,52.0,M,44.7,M,,*71
01:00:06.436;I;$POSMGYR,-318,305,-388*5E
01:00:06.436;I;$POSMACC,1788,-16752,184*4D
01:00:06.436;I;$POSMVCC,5143,4943*5E
01:00:06.270;B;юяш‡яш‡яяяяяшшБП?я??ПяяяГПяПяБя?АПьБя?ПяПя?яБ?юПяПя?ПяПЏПяшПяПяряяЗяяьшшя‡|зПГяю
01:00:06.421;A;$GPGSV,3,1,11,02,28,050,,05,07,089,,06,01,028,-1,10,09,043,*6B
01:00:06.451;B;ряяяя?џ??яАЗ?П0?ЖПяЗя?яБяяяяя?юяяя?ППяя?АПя>рА8яя?яяяяшя‡яgяяяяПяБПБья??П?яя0рБ
01:00:06.555;A;$GPGSV,3,2,11,12,25,107,,14,03,224,,21,12,185,,23,06,342,*76
01:00:06.609;B;?яя?я?Г?П?яяП?ьяяяяря?яП?ЗяГш?р?яяь8шяягяяь??рююяьяя?яр?А?яяГ?я?яяяяЗППяяяящПья
01:00:06.685;A;$GPGSV,3,3,11,25,62,108,,29,80,217,,31,55,281,*4D
01:00:06.794;A;$GPGLL,5218.6212,N,01018.3973,E,130449,A,A*43
01:00:06.892;A;$GPBOD,,T,,M,,*47
01:00:06.777;B;юяя?яяяяяаяЏяя9яю?Пш???яЏяяяя?АПГяЗГ?юяБь?яя>Пюяя?яьяуша|ЏяПряППЏПяя?шсяш‡яяяП
01:00:06.934;A;$GPBWC,130449,,,,,,T,,M,,N,,A*70
01:00:07.003;A;$GPVTG,89.5,T,87.3,M,6.2,N,11.5,K,A*1A
01:00:06.946;B;юГ?шя>яПяПяПя0ПяяяяяяяЗяяуш‡яgяяПя?ПяяПАЗПГяяряП?ПяПюяПя??Ѓя?Ѓюяяа‡џс‡ПьП?Пяр
01:00:07.088;A;$PGRME,3.3,M,3.9,M,5.1,M*20
01:00:07.149;A;$PGRMZ,171,f,3*1C
01:00:07.190;A;$PGRMM,Potsdam*39
01:00:07.229;A;$GPRTE,1,1,c,*37
01:00:07.115;B;ьр>яЏящяяряьяясяяяяяяџПяЗБПяяяяБяяь?яьяраЏяѓяяЋ?я?сяшяяяящяяПяяяПП?яяяш‡яя0я
01:00:07.268;A;$GPAPB,A,A,,,N,V,V,,,,,,,,A*67
01:00:07.334;A;$SDDBT,11.9,f,3.62,M,1.98,F*38
01:00:07.437;I;$POSMGYR,-307,613,701*7A
01:00:07.437;I;$POSMACC,2788,-16132,296*4E
01:00:07.437;I;$POSMVCC,5143,4943*5E
01:00:07.283;B;яя0ПрЏ0шяяяПяПярП?ЃуЗ8сьшгяяяяБ>я?яxяяПЗГясяюрБ?0яяя?яяяшясяьяь?Пя?яяМьяьягяя
01:00:08.076;A;$GPRMC,130451,A,5218.6214,N,01018.4028,E,6.0,90.1,130714,2.1,E,A*2D
01:00:08.223;A;$GPRMB,A,,,,,,,,,,,,V,A*1C
01:00:08.128;B;яѓяььяььяььь|ьяяПя?яАря?БГяЗ??Пя0?яюряГшяяш‡џяяярюПррПяряяПяряяяуюяьшяя‡яПя
01:00:08.282;A;$GPGGA,130451,5218.6214,N,01018.4028,E,1,11,1.2,51.9,M,44.7,M,,*70
01:00:08.440;I;$POSMGYR,-291,555,137*76
01:00:08.440;I;$POSMACC,1568,-16588,1052*7F
01:00:08.440;I;$POSMVCC,5143,4943*5E
01:00:08.298;B;я?я9яящяю?Пяьяя?ЏПА?я??р??Гяяр?яБ??яПГПЗяПБ?яПяяршПЏ0яяЗяяш‡я‡ьяяГяяяяяяяя0??я
01:00:08.425;A;$GPGSV,3,1,11,02,28,050,,05,07,089,,06,01,028,-1,10,09,043,*6B
01:00:08.467;B;я?яя?я?П?яПя??Пяя?яяяяАГ?0я?яБАП??яяяГряяѓюяш‡г??ряяюя?яяяь?Пя?яяПюшПяьяГьЗ?я
01:00:08.560;A;$GPGSV,3,2,11,12,25,107,,14,03,224,,21,12,185,,23,06,342,*76
01:00:08.689;A;$GPGSV,3,3,11,25,62,108,,29,80,217,,31,55,281,*4D
01:00:08.636;B;яяяю?Пя?ЗПяя?яяшяяя?ПяЗяяшяа‡яя?ряя?БПь?яЗГяюАяП??>р?яя?яяяяГБяяЗря?БПяяяяяш‡
01:00:08.799;A;$GPGLL,5218.6214,N,01018.4028,E,130451,A,A*4C
01:00:08.896;A;$GPBOD,,T,,M,,*47
01:00:08.804;B;‡яЏрщяБ?яяья?яяяяяя?ряяя?яяПюя?я?яяюяяяя|яьш‡я‡ПяяПясяПяяЗьшшяьяяяГяЗ>>р?яя
01:00:08.937;A;$GPBWC,130451,,,,,,T,,M,,N,,A*79
01:00:09.008;A;$GPVTG,90.1,T,88.0,M,6.0,N,11.1,K,A*1C
01:00:08.971;B;ряџП0яяяяррюяЗБшяяяя‡ПБя?яПзя?яряяя?яяяПЏ???яБряП~<?яюяяяяџю‡яГр?яЏПя0Бряя?П?р
01:00:09.094;A;$PGRME,3.3,M,3.9,M,5.1,M*20
01:00:09.153;A;$PGRMZ,170,f,3*1D
01:00:09.194;A;$PGRMM,Potsdam*39
01:00:09.235;A;$GPRTE,1,1,c,*37
01:00:09.141;B;яПяяю?яя~|я?Зяр‡яГья‡юьяџяяя0яpшяс?я?сяш‡яњяюя?яяяя0у?ЗяяяяяюяЃя?ПЏяяџ
01:00:09.271;A;$GPAPB,A,A,,,N,V,V,,,,,,,,A*67
01:00:09.339;A;$SDDBT,12.2,f,3.72,M,2.03,F*30
01:00:09.442;I;$POSMGYR,24,278,965*60
01:00:09.442;I;$POSMACC,1704,-17092,-48*5F
01:00:09.442;I;$POSMVCC,5120,4943*5B
01:00:09.308;B;рПяПррр?уяЗсушџшя|я?яь0?я‡?я?З?яср?яяьП‡ПьАяязщяЊяяьуя?ю>щ?>?ПшяяюяЏрАБяя?Пш
01:00:10.066;A;$GPRMC,130453,A,5218.6211,N,01018.4082,E,5.8,94.7,130714,2.1,E,A*23
01:00:10.212;A;$GPRMB,A,,,,,,,,,,,,V,A*1C
01:00:10.140;B;я??ПщПяПАяБяПяП?яяЗю?я?яБПщПяя?яяьш‡аяяьяЃяяППППяП?ряря?Пяѓяяш‡‡яяПБяя?ЗГяЗ<яА
01:00:10.272;A;$GPGGA,130453,5218.6211,N,01018.4082,E,1,11,1.2,51.8,M,44.7,M,,*76
01:00:10.444;I;$POSMGYR,-134,330,-69*68
01:00:10.444;I;$POSMACC,1792,-16912,924*4E
01:00:10.444;I;$POSMVCC,5120,4943*5B
01:00:10.309;B;яяя?юяЏ0?????яяяя<П~рБрББяяя?рЗ?П?рЏП8?ряяяПяя?ясяяша‡ьзяГП?я>яяя?яяяяяя?яя?щПяш
01:00:10.414;A;$GPGSV,3,1,11,02,28,050,,05,07,089,,06,01,028,-1,10,09,043,*6B
01:00:10.477;B;0я??я??яПяяря??ПП?ря?яяБПяя?яяяяяуш‡џшяяяяП?П>БяяяПящя?яЗяряш?я<яГяяяя??Пя<ряАяП
01:00:10.549;A;$GPGSV,3,2,11,12,25,107,,14,03,224,,21,12,185,,23,06,342,*76
01:00:10.681;A;$GPGSV,3,3,11,25,62,108,,29,80,217,,31,55,281,*4D
01:00:10.645;B;яя?я?З0??яяПЗяяяшяџ‡яПГяяПя>я?я0ЗяПюяяП?я>0АяПя?ЗяПьяяЗ?П??яяяшяяяяяяшряряяяярЗ
01:00:10.789;A;$GPGLL,5218.6211,N,01018.4082,E,130453,A,A*4B
01:00:10.887;A;$GPBOD,,T,,M,,*47
01:00:10.815;B;я?яяЏ?я>яяАП?я?<ПюПюьяящьПяя~я8яяш‡џѓЏяяПшПяяяПьяЗяяяяџѓшяП>ГяшяяПярПя?яряПрЏя
01:00:10.926;A;$GPBWC,130453,,,,,,T,,M,,N,,A*7B
01:00:10.998;A;$GPVTG,94.7,T,92.5,M,5.8,N,10.7,K,A*1C
01:00:11.083;A;$PGRME,3.3,M,3.9,M,5.2,M*23
01:00:10.982;B;ряяЗѓяьш‡яшшя>?яяяяПя?яЗ?яя?П?ряяяяПяяяяя?яьяџџю†ПьПГПяя?я??ЏяюП?яяььГяяша‡џ
01:00:11.144;A;$PGRMZ,170,f,3*1D
01:00:11.183;A;$PGRMM,Potsdam*39
01:00:11.224;A;$GPRTE,1,1,c,*37
01:00:11.151;B;ЏяПяяяя‡П?яяшсЗяшяЏяяяяясу?яуя‡яяяяПярюПяПМяяяшяяяџрЃяЃяяПЏПя0зяряПяПяяЃя
01:00:11.259;A;$GPAPB,A,A,,,N,V,V,,,,,,,,A*67
01:00:11.328;A;$SDDBT,12.4,f,3.77,M,2.06,F*36
01:00:11.446;I;$POSMGYR,-530,564,167*7D
01:00:11.446;I;$POSMACC,2948,-16852,136*4A
01:00:11.446;I;$POSMVCC,5143,4943*5E
01:00:12.447;I;$POSMGYR,38,654,195*60
01:00:12.447;I;$POSMACC,4416,-16612,-216*6C
01:00:12.447;I;$POSMVCC,5143,4943*5E
01:00:13.448;I;$POSMGYR,-259,-242,1424*68
01:00:13.448;I;$POSMACC,4368,-15408,580*4D
01:00:13.448;I;$POSMVCC,5143,4943*5E
01:00:11.319;B;яЗяуяг‡ѓgПя?я?П‡П<?ЗярсрГПяяяяяяяяяяюь?яГ??яЗряяЗя?яряя?ЗПяя?я?я?яяюАяяюяшПя?
01:00:14.075;A;$GPRMC,130457,A,5218.6205,N,01018.4185,E,6.3,95.1,130714,2.1,E,A*2B
01:00:14.223;A;$GPRMB,A,,,,,,,,,,,,V,A*1C
01:00:14.172;B;яяяюя?Г?яя8яяПяя?яяььюуяяьяяяя?ярППП?Пяряяз?яяяяушяџш‡яяяья?>??я?яяря?яя0Џяя?
01:00:14.281;A;$GPGGA,130457,5218.6205,N,01018.4185,E,1,11,1.2,51.8,M,44.7,M,,*71
01:00:14.451;I;$POSMGYR,183,-571,629*78
01:00:14.451;I;$POSMACC,456,-16580,16*4B
01:00:14.450;I;$POSMVCC,5120,4943*5B
01:00:14.341;B;я>Ая?Б?Зрюряр?яяБПяПюяя?ПqяяяяшПЏ?0яЗюяяшџяя?я?яПюя?яГяя?Пяя?яя?яяАЗ?яяБяяАя0я
01:00:14.427;A;$GPGSV,3,1,11,02,28,050,,05,07,089,,06,01,028,-1,10,09,043,*6B
01:00:14.508;B;яяяьяПяяряяр?яяяшГ?я8яюуш‡џ‡яgяь??Пюяря<яящряяшППяяяяь?яГяяя?яя?яП?А9?Пяяяя?яГЗя
01:00:14.560;A;$GPGSV,3,2,11,12,25,107,,14,03,224,,21,12,185,,23,06,342,*76
01:00:14.691;A;$GPGSV,3,3,11,25,62,108,,29,80,217,,31,55,281,*4D
01:00:14.675;B;П?З?яяшяxџя?яяГПБяяя?яЗГя?яя?ПяБрА?я?юяяяГ?ПЗ?яГ?яяП?яяуя‡яяряПяяюАПшья?яяП???я
01:00:14.798;A;$GPGLL,5218.6205,N,01018.4185,E,130457,A,A*4C
01:00:14.896;A;$GPBOD,,T,,M,,*47
01:00:14.937;A;$GPBWC,130457,,,,,,T,,M,,N,,A*7F
01:00:14.845;B;яяшя?яящя?я?шя?ряяЃяшѓяш‡аяряя?яППЏПруяЗяяя‡аяяяПяГя8яяряяяяПxяяяППЏр?яяЗшюяш‡я
01:00:15.008;A;$GPVTG,95.1,T,92.9,M,6.3,N,11.6,K,A*1F
01:00:15.092;A;$PGRME,3.3,M,3.9,M,5.1,M*20
01:00:15.013;B;яяя?я?ПяПяр?ьП?яяяяП<Пя0??ПЗяьяя<яяяяяяяyяяПяяПяП?ряяПюяуяясяшя‡яяь0?Зя?яПь
01:00:15.156;A;$PGRMZ,170,f,3*1D
01:00:15.194;A;$PGRMM,Potsdam*39
01:00:15.235;A;$GPRTE,1,1,c,*37
01:00:15.270;A;$GPAPB,A,A,,,N,V,V,,,,,,,,A*67
01:00:15.181;B;у?xяяяяqяяаЏ‡ѓш~яяяяуя‡яяяярБПБяя?яяЗяяяшяяя?яПЃяППЏршПџяряяППППяяяЗяя8яшяш
01:00:15.338;A;$SDDBT,11.7,f,3.56,M,1.95,F*3C
01:00:15.453;I;$POSMGYR,-58,55,620*75
01:00:15.453;I;$POSMACC,1328,-16884,-108*6E
01:00:15.453;I;$POSMVCC,5120,4943*5B
01:00:15.350;B;яББр8П‡яя0?яяюяяр?щ?яяяяяьяшщю|?Бьяя?БряПю?БАПя?яГ?ря?юя?яяшГ8яящПЗяяП?я?яяю?Аяю
01:00:16.068;A;$GPRMC,130459,A,5218.6203,N,01018.4242,E,6.3,90.0,130714,2.1,E,A*2F
01:00:16.217;A;$GPRMB,A,,,,,,,,,,,,V,A*1C
01:00:16.184;B;я?<П?рюПяя?яяушяяяя?ЃрярПррПяряяПшяяяяяюяшша‡‡яр?ГАЗ>яяЖ??АршяА?яряАяяяяПяя8Гящ
01:00:16.275;A;$GPGGA,130459,5218.6203,N,01018.4242,E,1,11,1.8,51.8,M,44.7,M,,*7B
01:00:16.455;I;$POSMGYR,85,418,-168*43
01:00:16.455;I;$POSMACC,1964,-15568,784*4F
01:00:16.455;I;$POSMVCC,5143,4943*5E
01:00:16.353;B;ПяяяюяяПяяяяПАПЏПяшПЗПЏяяяяѓяя‡яяш?яяБПяю0яяПя?ПяяяяПяюПя8я?я?ППя?ряя?яяя0яяПБ
01:00:16.418;A;$GPGSV,3,1,11,02,28,050,,05,07,089,,06,01,028,-1,10,09,043,*6B
01:00:16.552;A;$GPGSV,3,2,11,12,25,107,,14,03,224,,21,12,185,,23,06,342,*76
01:00:16.521;B;??яя0яш?яяя|сяшяџ‡ьяяьрГяя>яя?р??яяяЗ0я?яяяьПяьшПяГБяБ?ПяяЖяПя?яяшя?яГяу?шяшш‡
01:00:16.681;A;$GPGSV,3,3,11,25,62,108,,29,80,217,,31,55,281,*4D
01:00:16.692;B;язя?яяяя?яГ?я?яря?я?ПГ?яА?рГ??ППГяя9яяья?яяяяяяя‡ашрЏ??ьюАПяяя??я?яяяяАПшя??Пяя
01:00:16.790;A;$GPGLL,5218.6203,N,01018.4242,E,130459,A,A*4C
01:00:16.888;A;$GPBOD,,T,,M,,*47
01:00:16.929;A;$GPBWC,130459,,,,,,T,,M,,N,,A*71
01:00:16.859;B;я??юБ?яяяяяяш‡ярярПППяряяЗяяьяшяяяѓя?яяш>?П?я0яряПрЏПяя?Пяя>яяш‡яяяxП?яяяяя
01:00:17.001;A;$GPVTG,90.0,T,87.9,M,6.3,N,11.6,K,A*1F
01:00:17.085;A;$PGRME,3.3,M,3.8,M,5.1,M*21
01:00:17.147;A;$PGRMZ,170,f,3*1D
01:00:17.029;B;рА?я>рюПяП<яяП?БяяяПЃу?ясяяџ‡яяюрГяяря?ГПАрЏ??рюяяу<яяџяcЏгр?яя?яПяяБьяашьс
01:00:17.186;A;$PGRMM,Potsdam*39
01:00:17.227;A;$GPRTE,1,1,c,*37
01:00:17.263;A;$GPAPB,A,A,,,N,V,V,,,,,,,,A*67
01:00:17.196;B;ЋяяЏяяяяь?сья‡яяяяя>П?Пяряь?ся?яяяяѓяярюяПяяяяряяПяяяряяЃяшяяяшьяяяяря?0шПяря0
01:00:17.331;A;$SDDBT,11.4,f,3.47,M,1.90,F*3A
01:00:17.456;I;$POSMGYR,-17,7,432*48
01:00:17.456;I;$POSMACC,812,-17004,-1452*67
01:00:17.456;I;$POSMVCC,5143,4943*5E
01:00:17.366;B;яя?ЋяюПя?я‡уяяяугшящЊБьяуяя>юьгьь?яяѓяььуя|яья<ю?я?яА>П?ряГяЗБяПяяяяyяЃя
01:00:18.070;A;$GPRMC,130501,A,5218.6205,N,01018.4301,E,6.3,89.0,130714,2.1,E,A*2B
01:00:18.217;A;$GPRMB,A,,,,,,,,,,,,V,A*1C
01:00:18.208;B;яясьшшџџся0яррПр??0рППП0яПяП?ьяяш‡яяяяяя?ящ??яя??АП?ГяяяЏряБА>?Пя?яяяя??яБюП?П?я
01:00:18.276;A;$GPGGA,130501,5218.6205,N,01018.4301,E,1,11,1.6,51.7,M,44.7,M,,*76
01:00:18.457;I;$POSMGYR,-270,65,747*4E
01:00:18.457;I;$POSMACC,576,-17676,-648*53
01:00:18.457;I;$POSMVCC,5143,4943*5E
01:00:18.376;B;я?П?Пюяя?ПЗПсяя?шяяяшш‡яgяьряяя>я?я?яАПяяяПП?ю??яяА??ряяЗяяюП?яА?сяяяяяя?0я?ьяя
01:00:18.419;A;$GPGSV,3,1,11,02,28,050,,05,07,089,,06,01,028,-1,10,09,043,*6B
01:00:18.554;A;$GPGSV,3,2,11,12,25,107,,14,03,224,,21,12,185,,23,06,342,*76
01:00:18.545;B;?|ьш‡џ‡яяряря?яяряя?яяяюяЗяяяяяяГя?яшрПьБПБяяБ?юПяьГяяЗПяяяяуш8юушяа‡џxяяяяя?яя
01:00:18.685;A;$GPGSV,3,3,11,25,62,108,,29,80,217,,31,55,281,*4D
01:00:18.713;B;ГяяяяП?яА???я?яяПяю?яря?яяяря?я?я?яяья‡яяЏЏПяГюяПяьяЖПЏяяяяя?яЗь?ярярБГ?яяя0яряя
01:00:18.793;A;$GPGLL,5218.6205,N,01018.4301,E,130501,A,A*40
01:00:18.890;A;$GPBOD,,T,,M,,*47
01:00:18.931;A;$GPBWC,130501,,,,,,T,,M,,N,,A*7D
01:00:18.880;B;шАяяшяЏяППзя0я?Пуяяяя‡яязяяяьяяяя0яяяярџряЏПрЏяряЗшсшяяя‡р?>яя0яряЗ??Пяяя0
01:00:19.004;A;$GPVTG,89.0,T,86.8,M,6.3,N,11.6,K,A*17
01:00:19.088;A;$PGRME,3.3,M,3.8,M,5.1,M*21
01:00:19.148;A;$PGRMZ,170,f,3*1D
01:00:19.050;B;ьяяр?яП?яря3яЗяшя‡яяяПГяс0Гя??я0яяяряяяююяяяяяяя?Б8яряГу?яся?џьяс?џЏяяяqу
01:00:19.187;A;$PGRMM,Potsdam*39
01:00:19.227;A;$GPRTE,1,1,c,*37
01:00:19.266;A;$GPAPB,A,A,,,N,V,V,,,,,,,,A*67
01:00:19.219;B;яяяя‡яш~ряя?яяПяяЗсь8яџяяьяя?яя0рЏяџПяряяПП?ряяяяяш|яяязяяГПюяя?яП?я?юряряАя
01:00:19.333;A;$SDDBT,12.5,f,3.80,M,2.08,F*31
01:00:19.458;I;$POSMGYR,-9,-307,549*54
01:00:19.458;I;$POSMACC,1136,-15692,36*78
01:00:19.458;I;$POSMVCC,5143,4943*5E
01:00:20.081;A;$GPRMC,130503,A,5218.6204,N,01018.4358,E,6.3,91.1,130714,2.1,E,A*2C
01:00:19.389;B;яя<?яяя??БяяяяьрюПщГБАряяАя0яПя??яАяя?я?ПяПЗПяряБяяПюГяЗБЗяяП>яяяяяяясуш‡яяя
01:00:20.228;A;$GPRMB,A,,,,,,,,,,,,V,A*1C
01:00:20.240;B;яюяяря?я?р?Пяяярюуяяяя‡яя‡я?я?я??ьПщьяяПЗ?я?рЏПяяяяяряяю?яяя?П?ю?БП?ПЗяПАПяПяя?
01:00:20.287;A;$GPGGA,130503,5218.6204,N,01018.4358,E,1,11,1.6,51.8,M,44.7,M,,*76
01:00:20.460;I;$POSMGYR,-107,-216,316*56
01:00:20.460;I;$POSMACC,2068,-16200,52*7F
01:00:20.460;I;$POSMVCC,5120,4943*5B
01:00:20.429;A;$GPGSV,3,1,11,02,28,050,,05,07,089,,06,01,028,-1,10,09,043,*6B
01:00:20.407;B;?яqПяМшясш‡яяяшр?яя???0яяПя?яя??яя??П?ЗП???рП?ш?яБяяяя0ОБП?яря?яя?ГяПЗяьш‡я‡я
01:00:20.564;A;$GPGSV,3,2,11,12,25,107,,14,03,224,,21,12,185,,23,06,342,*76
01:00:20.576;B;яяяяП?Бя?ья<>?я?яПя?ярАяПя<ЗрПГяяБьяяя>?ПяГря?яяшяяяяшюушя‡ьяяяяяПяя?ГяП??яБяяП
01:00:20.695;A;$GPGSV,3,3,11,25,62,108,,29,80,217,,31,55,281,*4D
01:00:20.802;A;$GPGLL,5218.6204,N,01018.4358,E,130503,A,A*4F
01:00:20.746;B;яя?ряяя?я??яяБПя9Пя?юПяЗ‡яья‡яяяя?я?яАряяА8ПЏя?юяБ?яяя??яяяюяяюяГ?ю0яуяяся8яџяш
01:00:20.899;A;$GPBOD,,T,,M,,*47
01:00:20.939;A;$GPBWC,130503,,,,,,T,,M,,N,,A*7F
01:00:20.912;B;яязПряП<8ЗяяшяьзяПюяяяяяяяПяППяПряППря?~яЗяся8‡яшш‡П>юПя?шПАБ0я?Џя?рГяяП?юПш?ь
01:00:21.011;A;$GPVTG,91.1,T,89.0,M,6.3,N,11.7,K,A*19
01:00:21.099;A;$PGRME,3.3,M,3.8,M,5.1,M*21
01:00:21.157;A;$PGRMZ,170,f,3*1D
01:00:21.197;A;$PGRMM,Potsdam*39
01:00:21.081;B;ПуБ>яяя‡џщр?0яПю?ь??яяяярюясяьяюяяяяњягПяшяПxП?3юяяяяшьсяяЏ‡ьшЃюПяя?‡аг‡
01:00:21.236;A;$GPRTE,1,1,c,*37
01:00:21.274;A;$GPAPB,A,A,,,N,V,V,,,,,,,,A*67
01:00:21.344;A;$SDDBT,12.2,f,3.73,M,2.04,F*36
01:00:21.464;I;$POSMGYR,-92,153,241*47
01:00:21.464;I;$POSMACC,1328,-16996,-268*69
01:00:21.464;I;$POSMVCC,5143,4943*5E
01:00:21.249;B;яяяюПѓППяяся?шяяяяряряяяПЏяџяшрря??я?ряя??яяшџ‡яяяяяПяр‡ПГя?яяяПяПя8яяПяяяьшЗщ
01:00:22.067;A;$GPRMC,130505,A,5218.6203,N,01018.4414,E,6.0,87.1,130714,2.1,E,A*26
01:00:22.076;B;яяяяя?яяря?яяБАряяА?Пряя?яя?П8?я???я?АП?ЗПяяяя?ЗБярья?р†Пюьяяя‡яяЏя0яяППрярПя
01:00:22.212;A;$GPRMB,A,,,,,,,,,,,,V,A*1C
01:00:22.272;A;$GPGGA,130505,5218.6203,N,01018.4414,E,1,11,1.2,51.9,M,44.7,M,,*7D
01:00:22.246;B;яяПязяяМяяяуяxяя‡яяБьяЗ??Пяя>яПяяяяяЏПя?яя?Пяя?яПяПБПяяяяр<П?Бр>Пяяяяя?яЏ?яяЗшяя
01:00:22.463;I;$POSMGYR,-164,1037,-50*52
01:00:22.463;I;$POSMACC,2448,-16316,1176*79
01:00:22.463;I;$POSMVCC,5120,4943*5B
01:00:22.417;A;$GPGSV,3,1,11,02,28,050,,05,07,089,,06,01,028,-1,10,09,043,*6B
01:00:22.415;B;шяяягзПГяяя?яяя?р?АПяЗяПП??ряяПА??ПяАшП?>рА?яяПяр?Ая?ю0АяяП?яѓяуш‡‡яшПяяя?яБяюя
01:00:22.548;A;$GPGSV,3,2,11,12,25,107,,14,03,224,,21,12,185,,23,06,342,*76
01:00:22.583;B;П?>яю?шПряш0яяПя?яяр?Бяяя?Б?З0ряья?Зяяя?яяЗяюяшшаяяяя?я??яяяГщяяГ?Б?я?яяяя?яр??ш
01:00:22.681;A;$GPGSV,3,3,11,25,62,108,,29,80,217,,31,55,280,*4C
01:00:22.789;A;$GPGLL,5218.6203,N,01018.4414,E,130505,A,A*41
01:00:22.751;B;я0яяяЗ??яАяяяяѓяяяя‡яяя9ГяАПЗяАяяЏПяюяБяяяя??Пяя??я?яяяяяяяя>яьш‡аяяяПППяря?я
01:00:22.889;A;$GPBOD,,T,,M,,*47
01:00:22.926;A;$GPBWC,130505,,,,,,T,,M,,N,,A*79
01:00:22.998;A;$GPVTG,87.1,T,84.9,M,6.0,N,11.1,K,A*1F
01:00:22.921;B;ЗсяяxяшѓяБ?Ая?яПяярряgяПЏ?ПрярюяЗ?я8‡яџш‡я?ярБ?яП?ЗП>ПЏр?яяПp?яяяяяяПяяяяяя`‡
01:00:23.083;A;$PGRME,3.3,M,3.8,M,5.1,M*21
01:00:23.145;A;$PGRMZ,170,f,3*1D
01:00:23.183;A;$PGRMM,Potsdam*39
01:00:23.089;B;яя†я?ряяяП???Пюя?ПБяю??яяяяяяяяяяяЗяПяяяюяяяяяяяяПаЏя‡~ЏуяБсяшяяgщрю?яПьПья?
01:00:23.224;A;$GPRTE,1,1,c,*37
01:00:23.263;A;$GPAPB,A,A,,,N,V,V,,,,,,,,A*67
01:00:23.330;A;$SDDBT,12.6,f,3.83,M,2.09,F*30
01:00:23.465;I;$POSMGYR,-515,850,45*41
01:00:23.465;I;$POSMACC,3044,-15928,740*46
01:00:23.465;I;$POSMVCC,5143,4943*5E
01:00:24.467;I;$POSMGYR,-297,475,435*74
01:00:24.467;I;$POSMACC,2936,-15644,1212*7D
01:00:24.466;I;$POSMVCC,5143,4943*5E
01:00:23.258;B;яяшшюаяПяяПяяПзП?яяПяП?яЃя8ЗяшяяяџрБяПяяшяяПАьяЏя????яя?я?ягшяяьБьяяяяря
01:00:25.072;A;$GPRMC,130508,A,5218.6204,N,01018.4496,E,6.2,90.1,130714,2.1,E,A*22
01:00:25.106;B;яььяья?яяььььяяяяьяяБ<яяяяяяььь?ьГьяяяБь?яГюья‡аџЋяяяяяяПяяяя0ПП?џПя>я
01:00:25.220;A;$GPRMB,A,,,,,,,,,,,,V,A*1C
01:00:25.279;A;$GPGGA,130508,5218.6204,N,01018.4496,E,1,11,1.6,51.5,M,44.7,M,,*75
01:00:25.274;B;я8‡џш‡яя?<яюя?я?ГБ?яя???рЏПяБА>яПяяю8ящяяяБя?БПяяЖюП?яяяяшПЗПс?ряя9юя?яяягџя?р?
01:00:25.468;I;$POSMGYR,-50,82,433*77
01:00:25.468;I;$POSMACC,2332,-16428,384*47
01:00:25.468;I;$POSMVCC,5120,4943*5B
01:00:25.421;A;$GPGSV,3,1,11,02,27,050,,05,07,089,,06,01,028,-1,10,09,043,*64
01:00:25.442;B;яБюПяьр?ЗП?ЗАяяяяяяЗяА??яяяяяяБя?я?яПярюяя?яр?яьПяяясяшя`яяяяПья>БяБьяяЗП?яшяПя
01:00:25.555;A;$GPGSV,3,2,11,12,25,107,,14,03,224,,21,12,185,,23,06,342,*76
01:00:25.610;B;Зяяя?ь?яярГюяяя0Б?щ?я?ьПяЗя<?яПМшшьшшяяязПяя?ряяПГюя??П???П?ь?рАяяяБяяя??я?ЗяяА
01:00:25.687;A;$GPGSV,3,3,11,25,62,108,,29,80,217,,31,55,280,*4C
01:00:25.794;A;$GPGLL,5218.6204,N,01018.4496,E,130508,A,A*41
01:00:25.896;A;$GPBOD,,T,,M,,*47
01:00:25.780;B;Аяь?|яя`яяЏ??яяяПЗьяя?яПяБя??ПяшюЗя‡яяьАщ?яПяяЃМ?ясяш‡яяЏяряяПяяПяя8яяяш‡аяџяя
01:00:25.934;A;$GPBWC,130508,,,,,,T,,M,,N,,A*74
01:00:26.005;A;$GPVTG,90.1,T,88.0,M,6.2,N,11.4,K,A*1B
01:00:25.947;B;яГяяяяяПяряПяяяЏяПЏяяяьЗ8яшxяя‡Пя?яяяяя??ПяяюПЗПьяя0?>???яяяь>сяяя‡яяПяПярюП
01:00:26.090;A;$PGRME,3.3,M,3.8,M,5.1,M*21
01:00:26.149;A;$PGRMZ,169,f,3*15
01:00:26.190;A;$PGRMM,Potsdam*39
01:00:26.231;A;$GPRTE,1,1,c,*37
01:00:26.116;B;яяА?ЏрЖПяряу?юяшя‡яяяяя?яшя?уяюяяяягсюПяяя|яЃ3яяяяя‡яџяя?>р>ряря<яя8‡џяяяяя
01:00:26.268;A;$GPAPB,A,A,,,N,V,V,,,,,,,,A*67
01:00:26.336;A;$SDDBT,11.7,f,3.55,M,1.94,F*3E
01:00:26.471;I;$POSMGYR,62,-127,794*46
01:00:26.471;I;$POSMACC,1052,-17256,-8*65
01:00:26.471;I;$POSMVCC,5143,4943*5E
01:00:27.471;I;$POSMGYR,103,231,680*5D
01:00:27.471;I;$POSMACC,1072,-16780,-668*68
01:00:27.471;I;$POSMVCC,5143,4943*5E
01:00:28.473;I;$POSMGYR,28,769,396*6F
01:00:28.473;I;$POSMACC,1692,-17408,420*41
01:00:28.473;I;$POSMVCC,5143,4943*5E
01:00:26.286;B;яя?яряяшПяПяяяПяяяю<8ЗсушяяязяяяяяяяПяПЗ9?ЏяБ0?яя‡уя‡яьяяюя?яья??ьяяПяь?яПяяяГ
01:00:29.061;A;$GPRMC,130512,A,5218.6203,N,01018.4614,E,6.6,92.2,130714,2.1,E,A*23
01:00:29.208;A;$GPRMB,A,,,,,,,,,,,,V,A*1C
01:00:29.115;B;?яП??АБАП?Зяяяyр?0яряь??0яяяЗю8ряяюПя0яяяя‡ясПя00ррПрПяПяря?я?юьсш‡яшшЃря
01:00:29.266;A;$GPGGA,130512,5218.6203,N,01018.4614,E,1,11,1.6,51.4,M,44.7,M,,*70
01:00:29.283;B;?яя??ящГяАрш<А??ярАБя>яП?ш??яяяя?я?яяя8ПЗ?ПшрqяяЗрЗПЋя???яяьшяяязП?яБрюяяАяПГЗя
01:00:29.474;I;$POSMGYR,-53,279,495*4E
01:00:29.474;I;$POSMACC,2156,-15376,1184*7B
01:00:29.474;I;$POSMVCC,5120,4943*5B
01:00:29.410;A;$GPGSV,3,1,11,02,27,050,,05,07,089,,06,01,028,-1,10,09,043,*64
01:00:29.450;B;яЗ?Пр?щяАЗя?Аюяя?яПяБяя<яряБПБяя??яяя<??яшяш‡я‡язПяП?я?БяяГрГЗПБяЗП?юяяяьрьГЗя?
01:00:29.545;A;$GPGSV,3,2,11,12,25,107,,14,03,224,,21,12,185,,23,06,342,*76
01:00:29.675;A;$GPGSV,3,3,11,25,62,108,,29,80,217,,31,55,280,*4C
01:00:29.619;B;?яяБяПя?Зяяь?П?яяГя<яМяяяш‡яяяяГрГяяюрГяяяьр?АяряГяяяя??яшяя<яП?я?ьяАруя|яяяя
01:00:29.782;A;$GPGLL,5218.6203,N,01018.4614,E,130512,A,A*45
01:00:29.881;A;$GPBOD,,T,,M,,*47
01:00:29.789;B;‡яЏя>яБАПЗяАя0Џя??я??П?яяяя‡?я<Ащя?яюПюуящяьш‡џѓяяяяџППряяЗЗюья‡џязяяБ?я?юя0?яя
01:00:29.921;A;$GPBWC,130512,,,,,,T,,M,,N,,A*7F
01:00:29.992;A;$GPVTG,92.2,T,90.0,M,6.6,N,12.2,K,A*12
01:00:29.956;B;ПяџПрЏяряяяяяяяяяшџяяя0БяПГПяПяяП??я?яП?яЏряь0ьПяяяяГяяаяяяяяяПяПюяГя???юПяя
01:00:30.076;A;$PGRME,3.4,M,3.8,M,5.1,M*26
01:00:30.139;A;$PGRMZ,169,f,3*15
01:00:30.180;A;$PGRMM,Potsdam*39
01:00:30.220;A;$GPRTE,1,1,c,*37
01:00:30.125;B;я?я?ьяя‡яяџ??ш?яяяяяБщсяшя‡џюяПяЏxьЃяя>яяЗяџшяя?Пяяѓяя?Зяя‡я~яяряяяПяярязяџ
01:00:30.256;A;$GPAPB,A,A,,,N,V,V,,,,,,,,A*67
01:00:30.324;A;$SDDBT,11.5,f,3.51,M,1.92,F*3E
01:00:30.475;I;$POSMGYR,-232,-423,361*53
01:00:30.475;I;$POSMACC,1648,-16840,-908*6D
01:00:30.475;I;$POSMVCC,5143,4943*5E
01:00:31.476;I;$POSMGYR,-334,-406,931*5C
01:00:31.476;I;$POSMACC,-272,-16804,656*55
01:00:31.476;I;$POSMVCC,5143,4943*5E
01:00:30.292;B;яяПП?яяряья8яяшяяяьзПю?ряяПь0>?ряПя??ьяяьяяяьшщяюяьь?ьяряяьгья|яяяуь|яьуяья
01:00:32.069;A;$GPRMC,130515,A,5218.6199,N,01018.4696,E,6.2,92.7,130714,2.1,E,A*2F
01:00:32.214;A;$GPRMB,A,,,,,,,,,,,,V,A*1C
01:00:32.142;B;яяя|3?яряя???я?Б<яЗ?я?яПБяярюПя‡яяя‡яџЋя0ЃПяППП?ПяПрПяя?уюѓсяш‡яяшяяБь?яю9??яБя
01:00:32.274;A;$GPGGA,130515,5218.6199,N,01018.4696,E,1,11,1.8,51.3,M,44.7,M,,*74
01:00:32.311;B;рЗя?яПрПяБ?яАПяш?шяюПяяя?0яП???юяьяяш8яшяП0<Зшяя‡яьџя?П?рБяПяяП<ЗяяяАППящяАЗ
01:00:32.479;I;$POSMGYR,-125,800,60*44
01:00:32.479;I;$POSMACC,552,-16592,296*77
01:00:32.478;I;$POSMVCC,5143,4943*5E
01:00:32.415;A;$GPGSV,3,1,11,02,27,050,,05,07,089,,06,01,028,-1,10,09,043,*64
01:00:32.479;B;яяА?яя?яяАБя?<?яПБПя?я?Бяя8Г0яя?яяшшяяяџрГПяПБяяБ?я?ЗПБ??яя?шПя?я?яяяП?Б?яя???яр
01:00:32.550;A;$GPGSV,3,2,11,12,25,107,,14,03,224,,21,12,185,,23,06,342,*76
01:00:32.680;A;$GPGSV,3,3,11,25,62,108,,29,80,217,,31,55,280,*4C
01:00:32.647;B;ряяПя?ряшяяя?яьш‡яяяџряр<0?юяГ>я?яряя??Пя?П?я?яя?я0ьяПюЗяя???яяясья‡џ‡яПяя>яя?
01:00:32.790;A;$GPGLL,5218.6199,N,01018.4696,E,130515,A,A*48
01:00:32.888;A;$GPBOD,,T,,M,,*47
01:00:32.817;B;яя>яЏяя?яя??шЗ?яяя?юя?яящяя?юПяяшяяяЏяяяяярЏряяяЗяьшяаязѓ?я?яяяЗяПя?я0зПяяярр?
01:00:32.929;A;$GPBWC,130515,,,,,,T,,M,,N,,A*78
01:00:33.000;A;$GPVTG,92.7,T,90.5,M,6.2,N,11.5,K,A*12
01:00:33.085;A;$PGRME,3.4,M,3.8,M,5.0,M*27
01:00:32.984;B;яюяя?юяш‡яяяшя?яяЗязр??яюяЋр8я?яЏяБяр?яяПяМяяяяя‡сяя?ПярЏ?Г?ярсрЗяяяЋяГЗсяшя‡я
01:00:33.145;A;$PGRMZ,168,f,3*14
01:00:33.185;A;$PGRMM,Potsdam*39
01:00:33.227;A;$GPRTE,1,1,c,*37
01:00:33.154;B;яяяяяАя‡яяя?шяяяяяьяяяяЏѓяяЏу?яш‡џяяяП?я?яьяуяЗсяш‡аЃџь?юП~?я0Џр0зя?яяПряяЃМ
01:00:33.264;A;$GPAPB,A,A,,,N,V,V,,,,,,,,A*67
01:00:33.330;A;$SDDBT,12.0,f,3.67,M,2.01,F*34
01:00:33.480;I;$POSMGYR,-380,795,-87*6E
01:00:33.480;I;$POSMACC,2432,-16140,-232*6A
01:00:33.480;I;$POSMVCC,5143,4943*5E
01:00:33.320;B;шЗушяьџПюГяАПрГПЗЗяЏ?яП?яПяяЗуьз>я|юььяПя<яюя9Г?яяяьАяПяя?я?я?я?ящшП‡Пяяшр
01:00:34.069;A;$GPRMC,130517,A,5218.6200,N,01018.4754,E,6.7,92.2,130714,2.1,E,A*21
01:00:34.215;A;$GPRMB,A,,,,,,,,,,,,V,A*1C
01:00:34.162;B;?ьяГ??я?ЗБ??я?Бящяяя<БяяяягЏ|ПяяяяПППяря0ППџяяяяяяьяяџяяяяБГя?>З?я?яАряяяА?Џяя?
01:00:34.274;A;$GPGGA,130517,5218.6200,N,01018.4754,E,1,11,1.6,51.0,M,44.7,M,,*77
01:00:34.482;I;$POSMGYR,-264,318,557*71
01:00:34.482;I;$POSMACC,2088,-16300,56*74
01:00:34.482;I;$POSMVCC,5120,4943*5B
01:00:34.333;B;?яАр?З?шяяПюяяяяяПшряБрАПсПшяяя?ЏПяьяшяяшяяяяря0?рюяПАГяяЗПАя?яПяя?яЗряя?яяяяПя
01:00:34.417;A;$GPGSV,3,1,11,02,27,050,,05,07,089,,06,01,028,-1,10,09,043,*64
01:00:34.499;B;юП?ГяяП?П?АПяя0?яяяуяЗяяшяяxяџ?яя?Пя?яя<р?я0я?ЗяП?яяАяряь?я0яяя?я0>?яя??ьПАшяя8я
01:00:34.552;A;$GPGSV,3,2,11,12,25,107,,14,03,224,,21,12,185,,23,06,342,*76
01:00:34.684;A;$GPGSV,3,3,11,25,62,108,,29,80,217,,31,55,280,*4C
01:00:34.668;B;яяшяяяшяяшязр?яГ??юП?яяЗяПБя?ППяюПя?яьюЗяря?ящюяГА?0яяяюяшя‡pяяя?я??Зяя?яЏ0яяяя
01:00:34.792;A;$GPGLL,5218.6200,N,01018.4754,E,130517,A,A*46
01:00:34.891;A;$GPBOD,,T,,M,,*47
01:00:34.932;A;$GPBWC,130517,,,,,,T,,M,,N,,A*7A
01:00:34.839;B;?П?Зяяр‡0?ьяЗ>ЗяяяяяЗ8яяя‡я|Џя0язП??я<яшяяяяяяП??яя?шяПяяППџ0?яя?ЏяяяМяюяяшяа
01:00:35.004;A;$GPVTG,92.2,T,90.1,M,6.7,N,12.5,K,A*15
01:00:35.087;A;$PGRME,3.4,M,3.8,M,5.1,M*26
01:00:35.008;B;яя‡р>я0яПяюА0Б?qП8Пя?яПяяящяуяюя?яяя?яяяЋяяя0З?qрГ0?ясяЗр?яюуГ?уяяшьяьряшяПяя
01:00:35.147;A;$PGRMZ,167,f,3*1B
01:00:35.189;A;$PGRMM,Potsdam*39
01:00:35.228;A;$GPRTE,1,1,c,*37
01:00:35.267;A;$GPAPB,A,A,,,N,V,V,,,,,,,,A*67
01:00:35.177;B;?яяяяяџ‡яяя?яЏя|юяяьюяяшяџяяяяБПяяяя<яЗяяш‡яяаяПЃПяяя?ЏПgяяяПяПП?ПряяЗяюяшџя|я
01:00:35.334;A;$SDDBT,11.9,f,3.62,M,1.98,F*38
01:00:35.484;I;$POSMGYR,-355,408,194*7F
01:00:35.484;I;$POSMACC,2792,-16000,468*42
01:00:35.484;I;$POSMVCC,5120,4943*5B
01:00:36.486;I;$POSMGYR,156,-211,777*7B
01:00:36.486;I;$POSMACC,1172,-17228,-672*64
01:00:36.486;I;$POSMVCC,5143,4943*5E
01:00:35.345;B;яБ?ПяПяяяП8ГПяяБя?яряПь?юяьз>яюьяПяя?З??А?ЗБ?я?Џяяя?яяПяАю?ПяршП?яя?Пьяяяя?ю
01:00:37.065;A;$GPRMC,130520,A,5218.6193,N,01018.4850,E,7.8,93.3,130714,2.1,E,A*29
01:00:37.212;A;$GPRMB,A,,,,,,,,,,,,V,A*1C
01:00:37.181;B;ЗП?Пяяyяяяя?сьш‡яяѓрюяяяяя?Пяряряя?Ѓу?ясуя‡я‡яюяяяя>ьяПщяя?ршяяГрЏПяБ?Б?0??>я?я
01:00:37.273;A;$GPGGA,130520,5218.6193,N,01018.4850,E,1,11,1.6,50.8,M,44.7,M,,*78
01:00:37.487;I;$POSMGYR,-219,-59,-195*47
01:00:37.487;I;$POSMACC,800,-16252,1168*45
01:00:37.487;I;$POSMVCC,5143,4943*5E
01:00:37.349;B;ПяяБя?БП?ря?ПАяя?ЗПяПЏр0Пя?сьш‡џяcяяяяю??я?яяПяшПя?яя?яяПАЗП??БяяАяПяя?я<яяяБ0Б
01:00:37.414;A;$GPGSV,3,1,11,02,27,050,,05,07,089,,06,01,028,-1,10,09,043,*64
01:00:37.548;A;$GPGSV,3,2,11,12,25,107,,14,03,224,,21,12,185,,23,06,342,*76
01:00:37.518;B;яя?яПяяГяяЗяя?шя‡гзря?яря>ряь?<яряяяяяяяряьря??яяяя0яГяяА?ПяьяряЗПь?ьПя8яяяшяяя
01:00:37.681;A;$GPGSV,3,3,11,25,62,108,,29,80,217,,31,55,280,*4C
01:00:37.688;B;gяяя??яяяяюяЗ?ПБяяяр<?0ААПяБЗр?яюяяяряяяПя?яу?шяшрЏящ?яяя??>ьрярА?А??яшяяяяярБ
01:00:37.786;A;$GPGLL,5218.6193,N,01018.4850,E,130520,A,A*40
01:00:37.885;A;$GPBOD,,T,,M,,*47
01:00:37.926;A;$GPBWC,130520,,,,,,T,,M,,N,,A*7E
01:00:37.856;B;я?ЗГАяЃПяьяяяя‡яяЏяяяяяПяяя<?яяяш‡яяѓя??яяяАяП?яяршяПЏряяяяя?Зяяяшяяяя‡??яПяПя
01:00:37.998;A;$GPVTG,93.3,T,91.2,M,7.8,N,14.4,K,A*1E
01:00:38.084;A;$PGRME,3.4,M,3.8,M,5.1,M*26
01:00:38.145;A;$PGRMZ,167,f,3*1B
01:00:38.025;B;яяяПярсяЗя?ПЏП>?рЗяуяя3?яяяшяяяяюяяП?яярГ0??Ћяяя>ПЋьяясяя‡яџяюяЗя?яПяььяа‡гя
01:00:38.183;A;$PGRMM,Potsdam*39
01:00:38.225;A;$GPRTE,1,1,c,*37
01:00:38.261;A;$GPAPB,A,A,,,N,V,V,,,,,,,,A*67
01:00:38.193;B;ю?џЏяс?яясяш‡яяяяП>ПяяяПяьЗсуя‡`яѓяяЃПя?яшяя?я?ПППрПяПЗЗяяшгяяяярБ<ПяПшя<я
01:00:38.329;A;$SDDBT,12.3,f,3.74,M,2.05,F*31
01:00:38.488;I;$POSMGYR,828,-882,1545*49
01:00:38.488;I;$POSMACC,248,-17032,-1020*66
01:00:38.488;I;$POSMVCC,5143,4943*5E
01:00:39.489;I;$POSMGYR,-127,427,-294*5B
01:00:39.489;I;$POSMACC,1260,-16532,772*45
01:00:39.489;I;$POSMVCC,5143,4943*5E
01:00:40.491;I;$POSMGYR,43,330,-236*4C
01:00:40.491;I;$POSMACC,2096,-16828,504*48
01:00:40.491;I;$POSMVCC,5143,4943*5E
01:00:41.492;I;$POSMGYR,-54,839,326*48
01:00:41.492;I;$POSMACC,1348,-17036,620*48
01:00:41.492;I;$POSMVCC,5143,4943*5E
01:00:38.363;B;З?яя<яяюяяуГюяьящз|юьгяя<?Пяяя>яП?яяяяяПя????Пя?я?ряП?ПБП?шПяП?ГяЗяЗ?яяюрюрЃя
01:00:42.064;A;$GPRMC,130525,A,5218.6198,N,01018.5015,E,6.9,84.4,130714,2.1,E,A*2E
01:00:42.212;A;$GPRMB,A,,,,,,,,,,,,V,A*1C
01:00:42.202;B;яяяяяшяџЏьПяррПряяяярря0яяяя?ьяьяяяxюПБьяЗя>П?яя??Зя??яяПяБАя?яя?яЗяяяяяББяюПшр
01:00:42.270;A;$GPGGA,130525,5218.6198,N,01018.5015,E,1,11,1.6,51.0,M,44.7,M,,*77
01:00:42.496;I;$POSMGYR,-324,155,126*7D
01:00:42.496;I;$POSMACC,2108,-16000,416*4E
01:00:42.496;I;$POSMVCC,5120,4943*5B
01:00:42.371;B;?Бр?яяя?шПш?Џ0яМЗЗяяш‡џягяяьяяяБяяАяПяЗрА?яППяяяяЗПя?я?яАяПяяяяя?яПюяя?ПАяяяя?ру
01:00:42.414;A;$GPGSV,3,1,11,02,27,050,,05,07,089,,06,01,028,-1,10,09,043,*64
01:00:42.549;A;$GPGSV,3,2,11,12,25,107,,14,03,224,,21,12,185,,23,06,342,*76
01:00:42.539;B;я?сь?я‡гџПГПяПяюя??я?яяяАяря??Пяьяяяшря?я?яяр>ящПя?я?яЗяГяяПяя?су8яџяья?ь0<Пяяя
01:00:42.680;A;$GPGSV,3,3,11,25,62,108,,29,80,217,,31,55,280,*4C
01:00:42.707;B;я?яяяяяяяППяяяяяяя?ЗяПГ>я?ЗяяА??Пяѓсяя‡яяяя?Гя?я?я???Џяяюяя?0яяяюПщя??я?Г9яя?я
01:00:42.787;A;$GPGLL,5218.6198,N,01018.5015,E,130525,A,A*46
01:00:42.887;A;$GPBOD,,T,,M,,*47
01:00:42.925;A;$GPBWC,130525,,,,,,T,,M,,N,,A*7B
01:00:42.876;B;яшяьш‡џяяяя0зяяяПрМ?Зсяя‡яьяяПяГящя?ПяППряяяПяяряППяя?ясу8яашџшя?шПЗППяяря0сяшя
01:00:42.996;A;$GPVTG,84.4,T,82.2,M,6.9,N,12.7,K,A*18
01:00:43.083;A;$PGRME,3.4,M,3.9,M,5.2,M*24
01:00:43.144;A;$PGRMZ,167,f,3*1B
01:00:43.044;B;?ППяГПяПур?яяяяџяяю‡П?ряПЏП?я?0Ћр?ряяюяяшяяяя‡яя|яБ?8ршрГуБьяяшя‡гЋсяяяя~яя
01:00:43.182;A;$PGRMM,Potsdam*39
01:00:43.224;A;$GPRTE,1,1,c,*37
01:00:43.259;A;$GPAPB,A,A,,,N,V,V,,,,,,,,A*67
01:00:43.214;B;я?сяя‡џяюП?ряяярМьяюяяяџяяяПярярярЏПзПџя0ПяП?яПяьяясяшxяяПяяПяяшяГПЗяПяя??яяП
01:00:43.327;A;$SDDBT,12.2,f,3.71,M,2.03,F*33
01:00:43.496;I;$POSMGYR,-619,-213,973*52
01:00:43.496;I;$POSMACC,504,-17352,-152*59
01:00:43.496;I;$POSMVCC,5143,4943*5E
01:00:44.082;A;$GPRMC,130527,A,5218.6200,N,01018.5075,E,6.1,85.8,130714,2.1,E,A*2D
01:00:43.383;B;яяя?сяяя?я?ю?я?яяряря?Б?яЗьяяПЏПя?АюяПщ??яяюПяП>яяЖП??юГяЗю?рьяБя‡яяяяяьяяяяя
01:00:44.229;A;$GPRMB,A,,,,,,,,,,,,V,A*1C
01:00:44.242;B;ряяяяряя0?ПП?яяяяюьсяшяџ‡шяр>яАяГяя?яБ?яяяАяяЏяАюАя?яЖяя?ящяяряяПюПЗя?БПБяяя??П
01:00:44.288;A;$GPGGA,130527,5218.6200,N,01018.5075,E,1,11,1.6,51.1,M,44.7,M,,*70
01:00:44.497;I;$POSMGYR,-104,576,339*74
01:00:44.497;I;$POSMACC,2976,-15536,1636*7D
01:00:44.497;I;$POSMVCC,5143,4943*5E
01:00:44.433;A;$GPGSV,3,1,11,02,27,050,,05,07,089,,06,01,028,-1,10,09,043,*64
01:00:44.410;B;?яЋяяуЗясяЗ‡џ‡гз0я?Б??яяя?П?яПя?яя0яю?яЗя??яяяяЗПАяя??яП1яря?я??яя?яПя?яуш‡я‡з
01:00:44.568;A;$GPGSV,3,2,11,12,25,107,,14,03,224,,21,12,185,,23,06,342,*76
01:00:44.596;B;ряПяПяяПяяр<щр?яшППя?0яГяГяЗрПяюП?ьяю?яПряГ?яяяяЗяр?Зяяш‡џяязП<я<яяБя?Зрш<яяя?П
01:00:44.698;A;$GPGSV,3,3,11,25,62,108,,29,80,217,,31,55,280,*4C
01:00:44.807;A;$GPGLL,5218.6200,N,01018.5075,E,130527,A,A*40
01:00:44.748;B;яьюП?яП?яяП??яПюяП?Ая0яяѓсяшяя‡pЏя?яю?ПяяяяПЏ??я?Бя?>?яяяяр>ГяюГяяяПЃП?ясуя‡яяЏш
01:00:44.905;A;$GPBOD,,T,,M,,*47
01:00:44.945;A;$GPBWC,130527,,,,,,T,,M,,N,,A*79
01:00:44.917;B;?язПрЋППяЗшяя‡яьзьПя<я?яЗ?ряПряяяПяяПрПяяя?Бш‡язџ‡ПАяП?0шПяьП8?яПЗПя?ЏПяБП?Пу
01:00:45.018;A;$GPVTG,85.8,T,83.7,M,6.1,N,11.4,K,A*19
01:00:45.102;A;$PGRME,3.4,M,4.0,M,5.2,M*2A
01:00:45.162;A;$PGRMZ,167,f,3*1B
01:00:45.201;A;$PGRMM,Potsdam*39
01:00:45.085;B;ПюьБюшџяяЏю?яяя?ЏП?ПяПяПЗПГяЏя<ясьшяяяяяяБ??ярГяяяяяя‡яЏЏраЏя|‡ЏяьБсяшаяя
01:00:45.242;A;$GPRTE,1,1,c,*37
01:00:45.280;A;$GPAPB,A,A,,,N,V,V,,,,,,,,A*67
01:00:45.346;A;$SDDBT,11.5,f,3.52,M,1.92,F*3D
01:00:45.498;I;$POSMGYR,-171,288,-35*62
01:00:45.498;I;$POSMACC,1432,-15772,2128*7A
01:00:45.498;I;$POSMVCC,5120,4943*5B
01:00:45.254;B;яярБПяПяяш8‡џЃяяряяяряПяПяПџПряПрПяяяьяЗя?ьяя|Пю?ПщяяяГПЗяПяя?Пяяяяя?яяуяшЗя
01:00:46.065;A;$GPRMC,130529,A,5218.6204,N,01018.5130,E,6.5,83.2,130714,2.1,E,A*2F
01:00:46.074;B;ьяььяяьуО?яГ>?яя?А??Џря?я?Аря?ь?яяяяПЗП?ьяя0??яя?яПяПяяюряяяяяяџсѓПяППяП0?П?
01:00:46.211;A;$GPRMB,A,,,,,,,,,,,,V,A*1C
01:00:46.270;A;$GPGGA,130529,5218.6204,N,01018.5130,E,1,11,1.6,51.0,M,44.7,M,,*7B
01:00:46.244;B;ряПязрЃяяяуя‡я‡шяБГяя?яя??я?яя?яяяя0яяя?я??яяАПя0яПя>ПяПяящяПяПяПЗяПяяЏяяяяьяя
01:00:46.501;I;$POSMGYR,86,137,837*66
01:00:46.501;I;$POSMACC,1280,-16012,156*4C
01:00:46.501;I;$POSMVCC,5143,4943*5E
01:00:46.415;A;$GPGSV,3,1,11,02,27,050,,05,07,089,,06,01,028,-1,10,09,043,*64
01:00:46.412;B;шџягяПГП?я?я?яГПя??яЗяяПяя?яшПяяБ?я?яПяяяяяА?яяяяАПяю0АяГПу??юьшяџ‡гx?ь?яяюяяБГ
01:00:46.547;A;$GPGSV,3,2,11,12,25,107,,14,03,224,,21,12,185,,23,06,342,*76
01:00:46.581;B;ПяЗ0яяЗП?яяяяГПяГ?яяь??юяяя?яППяГ?я?П?яяПяЗяюуяяяя|џяяяГяюяяяяПя?П?яярПя?0я?яГяя
01:00:46.680;A;$GPGSV,3,3,11,25,62,108,,29,80,217,,31,55,280,*4C
01:00:46.785;A;$GPGLL,5218.6204,N,01018.5130,E,130529,A,A*4A
01:00:46.750;B;ПяБ?яя?яАяПяяяяяшяџ‡ЏЏПюяяАП?яяяПЏПяяя??ящяяяяяБяяяя?яяПяяяяшшяяяПязяяяяяП?
01:00:46.885;A;$GPBOD,,T,,M,,*47
01:00:46.924;A;$GPBWC,130529,,,,,,T,,M,,N,,A*77
01:00:46.997;A;$GPVTG,83.2,T,81.1,M,6.5,N,12.0,K,A*12
01:00:46.917;B;8яу?‡яшѓПяГ?9яяяряПяяяяяяППяяяяяЗЗюш‡яxяяяА?П?ПярАБр?ПюяяПюяЏ?юяя??яяЃуБяуяая
01:00:47.082;A;$PGRME,3.4,M,4.0,M,5.2,M*2A
01:00:47.140;A;$PGRMZ,167,f,3*1B
01:00:47.181;A;$PGRMM,Potsdam*39
01:00:47.086;B;яЏ~ПяряПЏПяПя0сПщПяПЏь?яуяа‡яЏяяяя?ПxяьяяяЗяњяЏПаряѓяЃЏуя?ся?‡яя†яяяюрѓПяь?
01:00:47.222;A;$GPRTE,1,1,c,*37
01:00:47.259;A;$GPAPB,A,A,,,N,V,V,,,,,,,,A*67
01:00:47.327;A;$SDDBT,11.5,f,3.52,M,1.92,F*3D
01:00:47.501;I;$POSMGYR,-69,373,60*72
01:00:47.501;I;$POSMACC,2524,-15076,932*4D
01:00:47.501;I;$POSMVCC,5143,4943*5E
01:00:48.502;I;$POSMGYR,18,-41,309*7A
01:00:48.502;I;$POSMACC,984,-16560,-488*59
01:00:48.502;I;$POSMVCC,5143,4943*5E
01:00:47.254;B;яяшяюяПюяюПППрПзПшПП0р00рря?шЗяяяяшья??яяя‡я?яяяПЏряр?Гяяя?яяшщя|яь<ья?ю
01:00:49.061;A;$GPRMC,130532,A,5218.6206,N,01018.5217,E,6.1,87.4,130714,2.1,E,A*27
01:00:49.093;B;яяьяяПЗяяяяЏП?яяяАПя??Зя†?яПяя?Зя?яяяяЗ?я?яП?яярЃяяяьшџcЏяяяППя?яяяПяярgяЃПяя
01:00:49.207;A;$GPRMB,A,,,,,,,,,,,,V,A*1C
01:00:49.266;A;$GPGGA,130532,5218.6206,N,01018.5217,E,1,11,1.8,50.9,M,44.7,M,,*73
01:00:49.261;B;яяш‡ашшяяяяя9??яя?ю?ПяяАЗрЏПяяяБАП?ьБ8ПяяяяяБП?ПяПяАПБяЏяш8ПЗясяя<Зясяя‡я‡ьgПГя>
01:00:49.504;I;$POSMGYR,-19,391,792*43
01:00:49.504;I;$POSMACC,1676,-17172,-92*53
01:00:49.504;I;$POSMVCC,5143,4943*5E
01:00:49.411;A;$GPGSV,3,1,11,02,27,050,,05,07,089,,06,01,028,-1,10,09,043,*64
01:00:49.431;B;ряяПяя?ья0яюяПряюряЗПяА>я0?шПАюПяГ?ПяяПяяПяяПя?Гяьяяяуя‡‡гзя?я?0Б?Пяья?я0БяЗ?0>
01:00:49.546;A;$GPGSV,3,2,11,12,25,107,,14,03,224,,21,12,185,,23,06,342,*76
01:00:49.600;B;?0я?яя?яППяБя?ьяяяяяяяьПяяПГЗ?ППяяьшяя‡гgя?яя???яГщя8?р>яяяя???яАр?яя?П?ю0яяяяя
01:00:49.676;A;$GPGSV,3,3,11,25,62,108,,29,80,217,,31,55,280,*4C
01:00:49.783;A;$GPGLL,5218.6206,N,01018.5217,E,130532,A,A*44
01:00:49.882;A;$GPBOD,,T,,M,,*47
01:00:49.769;B;?я?Зѓсяя‡шяя?>я??ПЗя?яярряБАя?я?яБЗПюяБяя>ГГПяяюяяЗяшxяяЏяяря?0яяПяЗЗяяяяьзѓя
01:00:49.923;A;$GPBWC,130532,,,,,,T,,M,,N,,A*7D
01:00:49.993;A;$GPVTG,87.4,T,85.3,M,6.1,N,11.3,K,A*12
01:00:49.937;B;яГящьГП?яяПяџярЏ?яЏПрЃяяяшяяяяяяЗПшПяП?яя?яяПЗяюярП?юяяяяПяяя?сьяя‡яЏяПяПяряя
01:00:50.078;A;$PGRME,3.4,M,4.0,M,5.3,M*2B
01:00:50.141;A;$PGRMZ,167,f,3*1B
01:00:50.180;A;$PGRMM,Potsdam*39
01:00:50.219;A;$GPRTE,1,1,c,*37
01:00:50.106;B;яПя0я?щяГ0с?ГяюушяяџсьПя?ЗП‡я?яяяяуяя‡ясяp‡яxяяуГ?яьяяя‡рБяяя|яуьЗяшшяЃџ|?я
01:00:50.256;A;$GPAPB,A,A,,,N,V,V,,,,,,,,A*67
01:00:50.325;A;$SDDBT,11.3,f,3.43,M,1.88,F*30
01:00:50.506;I;$POSMGYR,-226,907,24*42
01:00:50.506;I;$POSMACC,1728,-16100,-192*6C
01:00:50.506;I;$POSMVCC,5143,4943*5E
01:00:51.508;I;$POSMGYR,-398,203,488*7B
01:00:51.508;I;$POSMACC,1548,-16520,-736*66
01:00:51.508;I;$POSMVCC,5143,4943*5E
01:00:50.274;B;я~ПяПряяПзП?я?ПП?яяя?8сяш‡яьзряюПя?я<яяьяяяяр??П‡уьясяяя>я|яБя?Зя?ряПяГяяП??я?
01:00:52.069;A;$GPRMC,130535,A,5218.6205,N,01018.5296,E,6.3,95.8,130714,2.1,E,A*27
01:00:52.214;A;$GPRMB,A,,,,,,,,,,,,V,A*1C
01:00:52.121;B;яряюяяяПЖяБ8ПщПшя?ПБ?П??Б?я?я?ПГряя‡ПяМяЗушяаяя?яяППярПяПряя?я?я?яьсуш‡яю?Б
01:00:52.275;A;$GPGGA,130535,5218.6205,N,01018.5296,E,1,11,1.7,50.7,M,44.7,M,,*7F
01:00:52.289;B;яя?яЗП?яя?яшяя?ярПяяяюА?щ<?8я?яряяяяяЗрщяПЗясяяяряряППяЗяшяя‡яяПяяяП??яяь?яяП
01:00:52.509;I;$POSMGYR,-296,-310,360*5B
01:00:52.509;I;$POSMACC,2936,-15984,-412*64
01:00:52.509;I;$POSMVCC,5143,4943*5E
01:00:52.416;A;$GPGSV,3,1,11,02,27,050,,05,07,089,,06,01,028,-1,10,09,043,*64
01:00:52.459;B;яяя?яАщПяЗПяя?П?яшя?яяяяяяяяря??я?я?яя?ПЗЗяяш‡яяџяяьП?яБяПяь?ьЗя?яшяяю?Пя<я??шяр
01:00:52.551;A;$GPGSV,3,2,11,12,25,107,,14,03,224,,21,12,185,,23,06,342,*76
01:00:52.681;A;$GPGSV,3,3,11,25,62,108,,29,80,216,,31,55,280,*4D
01:00:52.627;B;?юяюяяя?З0яяьяяЗяГяГяМш8яяш‡яxгgяГя?яБяяГщяяяр?я?П?Г?я?ярГБшяяяюПЖяяя?яя??‡сьяяя
01:00:52.791;A;$GPGLL,5218.6205,N,01018.5296,E,130535,A,A*49
01:00:52.889;A;$GPBOD,,T,,M,,*47
01:00:52.795;B;яяя0?яюяПя<А?яря?яя?Ая?<>яряряГАяя?ПяяяП?яяяяяЏ‡яршяПяяяяяяяш‡аязяяяГАщяяПяПП
01:00:52.930;A;$GPBWC,130535,,,,,,T,,M,,N,,A*7A
01:00:53.001;A;$GPVTG,95.8,T,93.7,M,6.3,N,11.7,K,A*18
01:00:52.964;B;я?яяяяяЏППюМЗяяш‡яя‡П????яяПБя?яр~П?яГрр0>яя??я?юя?яяяЗяшьЏя?я?яряПяПяПюяю?яя
01:00:53.086;A;$PGRME,3.4,M,4.0,M,5.2,M*2A
01:00:53.146;A;$PGRMZ,166,f,3*1A
01:00:53.185;A;$PGRMM,Potsdam*39
01:00:53.226;A;$GPRTE,1,1,c,*37
01:00:53.133;B;юП?яьяяџяя??яш?яяяМяяяя?`гюЋяяяяѓшЃяяюяяяяяџџя?Бя?яѓя3Г?уш‡џюаьряяр?ЏПяПя
01:00:53.265;A;$GPAPB,A,A,,,N,V,V,,,,,,,,A*67
01:00:53.330;A;$SDDBT,12.6,f,3.85,M,2.10,F*3E
01:00:53.510;I;$POSMGYR,-31,80,625*77
01:00:53.510;I;$POSMACC,1604,-15980,-912*60
01:00:53.510;I;$POSMVCC,5143,4943*5E
01:00:53.301;B;?яП?яПяПяяЗЗяьшьяѓрБяяяПx0я??яПЋП?Пяя?яПяяяяяшяю|яья3ьясю?я??ПяГ??яЏя?яАяяП?
01:00:54.061;A;$GPRMC,130537,A,5218.6203,N,01018.5358,E,6.7,97.7,130714,2.1,E,A*29
01:00:54.208;A;$GPRMB,A,,,,,,,,,,,,V,A*1C
01:00:54.136;B;Гя?яяПяПяяяшяЗяя?АяяЗя?0>я‡ПюПяяяяшшаџсяПяррППяПярряПяяЃМяѓяяя‡яяПяГяя?яяюГя?
01:00:54.266;A;$GPGGA,130537,5218.6203,N,01018.5358,E,1,11,1.4,51.0,M,44.7,M,,*7D
01:00:54.305;B;яя<яГяЏяяю??АПЖяюАя†яяряБ?БП?яяяП?яяяяяПшрярППяяюяя‡я‡џяяяПяя>яяяяяяЗПяяяряяЗяяЗ
01:00:54.512;I;$POSMGYR,-774,360,900*74
01:00:54.512;I;$POSMACC,1316,-16804,-152*64
01:00:54.512;I;$POSMVCC,5143,4943*5E
01:00:54.410;A;$GPGSV,3,1,11,02,27,050,,05,07,089,,06,01,028,-1,10,09,043,*64
01:00:54.472;B;ря?Бя0яяПя?яяяАряя?юяяя?яяшя?ьЗ?яшяя‡гя0ьяяяююПя?яяяПяяяПя??я??П?яяяПяБрюяПяящр
01:00:54.545;A;$GPGSV,3,2,11,12,25,107,,14,03,224,,21,12,185,,23,06,342,*76
01:00:54.675;A;$GPGSV,3,3,11,25,62,108,,29,80,216,,31,55,280,*4D
01:00:54.640;B;П?яяя?яГ???ьЗяяяшшя‡|яяГяяяББ0яяяЗяряя?ярьБ0Аяяь?ярПя?рЗ?р?яя?яшяяя‡ряяЗя?Аря
01:00:54.784;A;$GPGLL,5218.6203,N,01018.5358,E,130537,A,A*4E
01:00:54.881;A;$GPBOD,,T,,M,,*47
01:00:54.809;B;Г?яяЏяяяяя?яЗя>?ПяПя?яЗьяяЃяюяяяяш‡яяПяПП?яяЗяьяяаьяя?АяьЗяя?ряяxяяяяррП
01:00:54.923;A;$GPBWC,130537,,,,,,T,,M,,N,,A*78
01:00:54.993;A;$GPVTG,97.7,T,95.6,M,6.7,N,12.4,K,A*16
01:00:55.078;A;$PGRME,3.4,M,4.0,M,5.3,M*2B
01:00:54.977;B;яяПя?сушяџgзяя>я0?яяя??ПшряП?0Зяяя??ПЗяяряя?ЗюяшяxяяyяГя8ПюяшяяПсяяр?0Џу?яяяяяшя
01:00:55.140;A;$PGRMZ,167,f,3*1B
01:00:55.179;A;$PGRMM,Potsdam*39
01:00:55.218;A;$GPRTE,1,1,c,*37
01:00:55.147;B;ЏяП?ш?рxяяяБяяяаяяссПаяя~ЏМяБяья‡яяџяПюяБ?ру<яяшяяяяряряяяряПязяяя??яПряП
01:00:55.257;A;$GPAPB,A,A,,,N,V,V,,,,,,,,A*67
01:00:55.324;A;$SDDBT,12.5,f,3.80,M,2.08,F*31
01:00:55.514;I;$POSMGYR,-58,520,366*45
01:00:55.514;I;$POSMACC,1044,-15852,668*43
01:00:55.514;I;$POSMVCC,5143,4943*5E
01:00:55.316;B;яЗсяяcя‡яяя?ГП?ПяяГПяяяЏяяП?яяшПя>сьяяЗзьяьяуяьряяМяьяГуяьѓѓю?ю?Б?ящяя?я‡я8ПяП
01:00:56.074;A;$GPRMC,130539,A,5218.6199,N,01018.5418,E,6.3,92.6,130714,2.1,E,A*24
01:00:56.219;A;$GPRMB,A,,,,,,,,,,,,V,A*1C
01:00:56.167;B;Б?яшяюГ??Б?ПГр?яяяяя?яяяяаяqѓяяППП?я0?я?ПрПшяюуяѓсьш‡яяяяя?ь?яГярюя??яяя?ярЏяя?
01:00:56.280;A;$GPGGA,130539,5218.6199,N,01018.5418,E,1,11,1.8,51.2,M,44.7,M,,*7E
01:00:56.338;B;?я??Зяя?яяр?яяяяяяяяЗ?ПяяяяшяПярюр?я8щяя‡я‡|П?я?ряюряьПГяяяяАрПяюяяЗяяяяППАш?я
01:00:56.516;I;$POSMGYR,-102,67,173*4B
01:00:56.516;I;$POSMACC,988,-16644,-232*57
01:00:56.516;I;$POSMVCC,5120,4943*5B
01:00:56.422;A;$GPGSV,3,1,11,02,27,050,,05,07,089,,06,01,028,-1,10,09,043,*64
01:00:56.505;B;яяяя?0яя?яя?яяяяя?яуя?яяш‡а‡яПьПьПяяПяяяГяряА8ярБярАьПГьшяПь?П?я?юА9ПяГяяяшПяЗя
01:00:56.556;A;$GPGSV,3,2,11,12,25,107,,14,03,224,,21,12,185,,23,06,342,*76
01:00:56.687;A;$GPGSV,3,3,11,25,62,108,,29,80,216,,31,55,280,*4D
01:00:56.673;B;яя8?яяя‡я‡|з?яяяПя?я?>яЗяП?я?ярГ?П?яяя?8яряюр>яяГяАяПя‡яя‡аЏЏПяяяярЗ?ююррП?Б??
01:00:56.795;A;$GPGLL,5218.6199,N,01018.5418,E,130539,A,A*43
01:00:56.892;A;$GPBOD,,T,,M,,*47
01:00:56.932;A;$GPBWC,130539,,,,,,T,,M,,N,,A*76
01:00:56.842;B;?Пщ?Б??~ПяяяЗь?яя?ю?я<яшш`яЏш?0ш0Пюяяяя8яяш‡аяяря<?я?БПяя?я?яяясяяЏря~ПЗяяш‡
01:00:57.004;A;$GPVTG,92.6,T,90.4,M,6.3,N,11.7,K,A*11
01:00:57.090;A;$PGRME,3.4,M,4.1,M,5.3,M*2A
01:00:57.011;B;яяярБ?ПяршПяяяя?юПшПя0яр>яПяруяяПБяюь?я‡ьсyя<П?0сПяПяряя>яьрЏяьЃю?ягЋя?яшяя‡П?
01:00:57.150;A;$PGRMZ,168,f,3*14
01:00:57.190;A;$PGRMM,Potsdam*39
01:00:57.231;A;$GPRTE,1,1,c,*37
01:00:57.267;A;$GPAPB,A,A,,,N,V,V,,,,,,,,A*67
01:00:57.180;B;Пяшсяяџ‡гюqПяршЃЏяяяяяяя|џяя?ПяПяППя?яяџЃџяПюяюяяяЏяяП?яяя?р?ПюяшЗяяягяяяя
01:00:57.334;A;$SDDBT,12.0,f,3.67,M,2.01,F*34
01:00:57.517;I;$POSMGYR,-397,256,436*71
01:00:57.517;I;$POSMACC,964,-16200,-164*51
01:00:57.517;I;$POSMVCC,5143,4943*5E
01:00:58.519;I;$POSMGYR,92,273,260*68
01:00:58.519;I;$POSMACC,1160,-16680,168*41
01:00:58.519;I;$POSMVCC,5143,4943*5E
01:00:57.347;B;яя??А?‡яьПяЗПярГПя>яяПяяяяюя?Бяяяя?ряя9ГяяПЗ??ГяЏП?Б?я?яящ?ЗПюяшП?Пя?ршяю<яяя
01:00:59.068;A;$GPRMC,130542,A,5218.6193,N,01018.5506,E,6.3,95.4,130714,2.1,E,A*29
01:00:59.213;A;$GPRMB,A,,,,,,,,,,,,V,A*1C
01:00:59.184;B;яяяП?ряПяяГ?ся8шяяяПяяяПяППяППяяПшПЃя>юяяшя‡‡0?ьА??я?яяяяП?юБ??ряяяяБ?яЖ>?Зр‡
01:00:59.274;A;$GPGGA,130542,5218.6193,N,01018.5506,E,1,11,1.4,51.0,M,44.7,M,,*78
01:00:59.354;B;П?П?яя?Пя???рярря?ПяПярПМя?сяш‡шяgПГр?П?яПя?ряЗПА?яП?яяя?я?я??П?яш?яя0яяАя?яя?
01:00:59.522;I;$POSMGYR,240,-273,508*71
01:00:59.522;I;$POSMACC,504,-16612,-912*55
01:00:59.522;I;$POSMVCC,5143,4943*5E
01:00:59.416;A;$GPGSV,3,1,11,02,27,050,,05,07,089,,06,01,028,-1,10,09,043,*64
01:00:59.550;A;$GPGSV,3,2,11,12,25,107,,14,03,224,,21,12,185,,23,06,342,*76
01:00:59.522;B;яПя?яяяяяМ??яш‡а‡гџрьяяяяюПюьяящ0БяшяяюЗяяьрГьяя?ГБПя?Пю?юПяььП?я?ьяяПяЗЗяяяя‡
01:00:59.681;A;$GPGSV,3,3,11,25,62,108,,29,80,216,,31,55,280,*4D
01:00:59.691;B;ьяПГПя??яП<яяшяПяАя?яьБП??0я?яяПьяя>?я??яПяяяюу8‡яяяяю?БАяЗБ?я?ря?Бяя?ПяяАяПщяю
01:00:59.789;A;$GPGLL,5218.6193,N,01018.5506,E,130542,A,A*4B
01:00:59.888;A;$GPBOD,,T,,M,,*47
01:00:59.929;A;$GPBWC,130542,,,,,,T,,M,,N,,A*7A
01:00:59.858;B;??Жя??яяь?ѓш‡аяЏяПяшПяЏрП3?Зьш‡яяшяя?ьАю?яяряПяПџяПЏПяЏрПюяшяяш‡зшяП?щП??з
01:00:59.998;A;$GPVTG,95.4,T,93.2,M,6.3,N,11.7,K,A*11
01:01:00.086;A;$PGRME,3.4,M,4.1,M,5.3,M*2A
01:01:00.144;A;$PGRMZ,167,f,3*1B
01:01:00.025;B;я?яП?яяр?ПяПяП??П?яя?Ѓу?>юяшя‡яс?ьПяяяП?ПяПюяяП<яЏяяяяя‡џЋгПБяяя?<яяяяяяшяя
01:01:00.185;A;$PGRMM,Potsdam*39
01:01:00.225;A;$GPRTE,1,1,c,*37
01:01:00.263;A;$GPAPB,A,A,,,N,V,V,,,,,,,,A*67
01:01:00.194;B;яяџяѓуьБяягшяяБр?ПѓПьяЗяшяяяяь?юяяяя?ЏПзяшяПрППяяПяшЗяшгшяѓзя?яр<яя0?р
01:01:00.331;A;$SDDBT,12.2,f,3.71,M,2.03,F*33
01:01:00.523;I;$POSMGYR,-202,151,-151*51
01:01:00.523;I;$POSMACC,904,-15636,156*79
01:01:00.523;I;$POSMVCC,5143,4943*5E
01:01:00.362;B;яяПяПяПяГяxПяяяяяяЊ??я?>шЗряя>ГБ?яя?я??p?яБА??ПщЗяГрщяяяяя>яПяяБяяЗя?ряр?яяПяП
01:01:01.066;A;$GPRMC,130544,A,5218.6192,N,01018.5562,E,6.4,91.5,130714,2.1,E,A*2E
01:01:01.213;A;$GPRMB,A,,,,,,,,,,,,V,A*1C
01:01:01.203;B;яяяяя‡яџяяяяр?яПяряя?яяяПяяяяьш‡я‡‡яяя?яЗЗ?ряяяАПш?я?яЏ?яБяБяП?Зя?П~яяяяю?ГП?р
01:01:01.272;A;$GPGGA,130544,5218.6192,N,01018.5562,E,1,11,2.0,51.0,M,44.7,M,,*7A
01:01:01.524;I;$POSMGYR,28,174,141*6D
01:01:01.524;I;$POSMACC,1180,-16220,-472*62
01:01:01.524;I;$POSMVCC,5143,4943*5E
01:01:01.372;B;я?0яяЋяяяПЗяяяяьЗЃяяя‡ягяПяПБПБяряьряЗяАЗ?Пяяяр?яяяя??П?яПяяя??яясБя>яя?БрАяяяя
01:01:01.415;A;$GPGSV,3,1,11,02,27,050,,05,07,089,,06,01,028,-1,10,09,043,*64
01:01:01.549;A;$GPGSV,3,2,11,12,25,107,,14,03,224,,21,12,185,,23,06,342,*76
01:01:01.540;B;яяюья‡яяяџр?П?0>ярю<яГярюяяяяяяя?ь?Гяяря?юр?ьрБ?Зяя<ГПА?яяЗяряяшсяшяашгз??яГя?Б0
01:01:01.680;A;$GPGSV,3,3,11,25,62,108,,29,80,216,,31,55,280,*4D
01:01:01.708;B;ящ0яяя?яА?я<яПяяяя?яяяяяяяЗя?Аяяуяяюьш‡яяЏП?яяяПяБ?я?яяАяя??яяюш?рщя>яя9яЗяяя~у
01:01:01.789;A;$GPGLL,5218.6192,N,01018.5562,E,130544,A,A*4E
01:01:01.887;A;$GPBOD,,T,,M,,*47
01:01:01.926;A;$GPBWC,130544,,,,,,T,,M,,N,,A*7C
01:01:01.877;B;8яяяш‡яЏя?яяПрqяяяяЗюяяяяяяяяя?Ж?????рПряяяярЏ0ПяПЗьяяш‡џяџшяБярЗПш0??ряяя0?р
01:01:01.998;A;$GPVTG,91.5,T,89.4,M,6.4,N,11.8,K,A*11
01:01:02.084;A;$PGRME,3.4,M,4.1,M,5.3,M*2A
01:01:02.144;A;$PGRMZ,167,f,3*1B
01:01:02.045;B;яяpя>?П??Џяю?яюяяяяџюП<яяПЋПшПяяюПяПяяс?Гяяяяя‡|сcПя8?я‡яяяБяяяя‡џЋЋПарѓшяЋя
01:01:02.183;A;$PGRMM,Potsdam*39
01:01:02.224;A;$GPRTE,1,1,c,*37
01:01:02.261;A;$GPAPB,A,A,,,N,V,V,,,,,,,,A*67
01:01:02.214;B;яюсуяая‡яюяяПѓПяГЗяш‡яя`ѓПяяю0я?рПgяяяррПП?яяяМшЗяьшгяяяџрюБряяяяяящ?0qрБяБяП
01:01:02.329;A;$SDDBT,11.5,f,3.52,M,1.92,F*3D
01:01:02.525;I;$POSMGYR,-155,-95,-103*43
01:01:02.525;I;$POSMACC,812,-16268,252*74
01:01:02.525;I;$POSMVCC,5143,4943*5E
01:01:03.526;I;$POSMGYR,-26,211,-358*69
01:01:03.526;I;$POSMACC,152,-16544,-1236*6E
01:01:03.526;I;$POSMVCC,5143,4943*5E
01:01:04.066;A;$GPRMC,130547,A,5218.6192,N,01018.5644,E,6.0,90.9,130714,2.1,E,A*23
01:01:02.384;B;яя?шягящяюБяяяю?ЗряП?<яАПяБюьрр0??яБ?ПЖя?яПяя?яяя?яП?ПяьяЗю?ряПяр‡?яяГГяяЗxяџся
01:01:04.210;A;$GPRMB,A,,,,,,,,,,,,V,A*1C
01:01:04.222;B;ряяррПря?яПППяяЃяюѓяуяя‡яяяяяяЖяЗяЗья?П??яяяЏПя>я?яяяя?яяря?юяяяя?яя>П?ПяПЗя?
01:01:04.270;A;$GPGGA,130547,5218.6192,N,01018.5644,E,1,11,1.4,51.0,M,44.7,M,,*79
01:01:04.528;I;$POSMGYR,-346,772,1223*4D
01:01:04.528;I;$POSMACC,1024,-17548,20*7B
01:01:04.528;I;$POSMVCC,5143,4943*5E
01:01:04.413;A;$GPGSV,3,1,11,02,27,050,,05,07,089,,06,01,028,-1,10,09,042,*65
01:01:04.392;B;ярЋяя?я?юяш‡`яџяПьП?Пя>ря?р?ЗПя?А?яАЖяяЗяАяярП?яяАяПяГ?0яяП?А???Пя??яяяясяш‡я‡яя
01:01:04.546;A;$GPGSV,3,2,11,12,25,107,,14,03,224,,21,12,185,,23,06,342,*76
01:01:04.561;B;я?ряПяяряьПяяяю?шПя?яя??яяГяярья?я?яю?ЗяПя<Пяяяяяь0яЗяяьш‡џшгяр?ПяПю?я?яяш?яБя?П
01:01:04.679;A;$GPGSV,3,3,11,25,62,108,,29,80,216,,31,55,280,*4D
01:01:04.787;A;$GPGLL,5218.6192,N,01018.5644,E,130547,A,A*4A
01:01:04.729;B;яя>Пя?ПГ?яПрГя?9?я<?яяя8яяуш‡џшЏЏПя??яПя??Г0рПяяяя?ПЗЗяшяyряяяя?шяюяяяяшџѓpя
01:01:04.886;A;$GPBOD,,T,,M,,*47
01:01:04.924;A;$GPBWC,130547,,,,,,T,,M,,N,,A*7F
01:01:04.897;B;яП?рсяяя8Зьяяьяяя?ьяяЗяППярППxяПсПрряПюя8‡шшџяџяПяАП?яяя??ПяяяяЗяяяЏяююПьяя
01:01:04.996;A;$GPVTG,90.9,T,88.7,M,6.0,N,11.2,K,A*10
01:01:05.082;A;$PGRME,3.4,M,4.0,M,5.3,M*2B
01:01:05.142;A;$PGRMZ,167,f,3*1B
01:01:05.181;A;$PGRMM,Potsdam*39
01:01:05.065;B;яЃ?>?яџшяЋяяГяЗПяяПАПяяюПГяяяяяяяшя‡яяяяЗЗяяП<Пяяяя8яшяяяПаЏѓяяЏуГ?яяЗшаяящ
01:01:05.222;A;$GPRTE,1,1,c,*37
01:01:05.261;A;$GPAPB,A,A,,,N,V,V,,,,,,,,A*67
01:01:05.329;A;$SDDBT,12.2,f,3.71,M,2.03,F*33
01:01:05.531;I;$POSMGYR,-226,336,350*7A
01:01:05.531;I;$POSMACC,308,-16668,-672*5B
01:01:05.531;I;$POSMVCC,5143,4943*5E
01:01:06.532;I;$POSMGYR,-181,349,575*7D
01:01:06.532;I;$POSMACC,1264,-16796,-816*6D
01:01:06.532;I;$POSMVCC,5143,4943*5E
01:01:05.235;B;ПБрБяяПьяяш‡яяаяяяПяПяПр?зяяяяПяя?рПяяЗяяяяяяяшяюГя??ПГяяяПяяяПяГяяя?<яяшюю
01:01:07.068;A;$GPRMC,130550,A,5218.6188,N,01018.5730,E,6.2,94.4,130714,2.1,E,A*27
01:01:07.080;B;|яюяяящя0ярщГ>?ПяяААяЏяАя?яАрщя?яяюяш0ья?шП??БГяЗяяяьП??~ряя?Зяуш‡яcяьр~Пя0ПрППП
01:01:07.215;A;$GPRMB,A,,,,,,,,,,,,V,A*1C
01:01:07.274;A;$GPGGA,130550,5218.6188,N,01018.5730,E,1,11,1.6,51.0,M,44.7,M,,*74
01:01:07.250;B;ряряяяяяяьюшяџя‡яр??яяяярЗя?яПшБя?яярА?я?яП?яГяяя?БяББяБП?яЗяяяПяя8ЗПЗяср?Пяяся
01:01:07.535;I;$POSMGYR,-402,704,206*7D
01:01:07.535;I;$POSMACC,2712,-15884,488*43
01:01:07.535;I;$POSMVCC,5143,4943*5E
01:01:07.419;A;$GPGSV,3,1,11,02,27,050,,05,07,089,,06,01,028,-1,10,09,042,*65
01:01:07.419;B;шшџ‡cяяГПяПя??я<яьшя?ю?яПяяяяшПя??яяАяя?юяя?яППяяя?ПяБПАшяяяя?яяшшяxяьр?яяюя?Г
01:01:07.552;A;$GPGSV,3,2,11,12,24,107,,14,03,224,,21,12,185,,23,06,342,*77
01:01:07.586;B;?яяря?З0я?я0?ярь<шяПяя?юяя>я9яяяГя??яя8яПуЗяяуш‡я‡яя?яГяяБя?9?З<яя???р??я?Аяь?ш
01:01:07.684;A;$GPGSV,3,3,11,25,62,108,,29,80,216,,31,55,280,*4D
01:01:07.792;A;$GPGLL,5218.6188,N,01018.5730,E,130550,A,A*45
01:01:07.753;B;я??яяяяПяя?яуяяяяш‡яяяяПЗяяяяяБ??0яПяя?я?яЗя<ярюП??яя9яяяПЃя8щяьЗяаѓЏяярш0я~0яуя
01:01:07.891;A;$GPBOD,,T,,M,,*47
01:01:07.930;A;$GPBWC,130550,,,,,,T,,M,,N,,A*79
01:01:08.001;A;$GPVTG,94.4,T,92.3,M,6.2,N,11.6,K,A*10
01:01:07.923;B;яяяяяяяяПяГАя>яПр?яяяяяяяПяря0Ѓяяяяяшяџяџшя?яПшПя0?я?я?Ћр?ПГяяряяП?яяяь??яшџя
01:01:08.086;A;$PGRME,3.4,M,4.1,M,5.3,M*2A
01:01:08.148;A;$PGRMZ,167,f,3*1B
01:01:08.187;A;$PGRMM,Potsdam*39
01:01:08.091;B;яяяряряяяршяяПюПя0ярюМяююяяџшьяяя?яшПяь??ясуяџягя0яЏшя‡юяьяяьяџяџяяяря?яяяЗ
01:01:08.227;A;$GPRTE,1,1,c,*37
01:01:08.265;A;$GPAPB,A,A,,,N,V,V,,,,,,,,A*67
01:01:08.333;A;$SDDBT,11.7,f,3.57,M,1.95,F*3D
01:01:08.536;I;$POSMGYR,-153,538,-294*57
01:01:08.536;I;$POSMACC,2896,-15320,-304*6B
01:01:08.536;I;$POSMVCC,5143,4943*5E
01:01:09.537;I;$POSMGYR,-68,145,407*41
01:01:09.537;I;$POSMACC,3300,-16720,-420*68
01:01:09.537;I;$POSMVCC,5143,4943*5E
01:01:08.260;B;яЗ‡аяяѓПюПяяяяряgПяПяПяя?яяюя8ЗюшcяяяяюБПЗя‡яГПЗяяЋяя??я0?ьяяя?щяяьгььуяяю
01:01:10.067;A;$GPRMC,130553,A,5218.6182,N,01018.5814,E,6.4,98.3,130714,2.1,E,A*2A
01:01:10.098;B;яьяьььяягя?я>АяАП??яя?яяяршя??ПГрБяяЗБ?яяП?рюя3яяяш‡џяЏярЃррПП?яряП?яяяя<?я
01:01:10.216;A;$GPRMB,A,,,,,,,,,,,,V,A*1C
01:01:10.274;A;$GPGGA,130553,5218.6182,N,01018.5814,E,1,11,1.2,50.6,M,44.7,M,,*77
01:01:10.267;B;яяш‡яяяПяьяящяя?Гя?Пшя?яПяяАя?Б?П?я?8яюрБя>БП>П?я>АП?яяря?П?ПяряяЗЗюя8‡а‡яяяьяя
01:01:10.538;I;$POSMGYR,-188,212,-259*5F
01:01:10.538;I;$POSMACC,2488,-16212,-260*68
01:01:10.538;I;$POSMVCC,5143,4943*5E
01:01:10.416;A;$GPGSV,3,1,11,02,27,050,,05,07,089,,06,01,028,-1,10,09,042,*65
01:01:10.436;B;ПяяряГяяя?яЗАяяАяряЗяАяяяП?я0яБяА<яяяю?БяП?БяяшГряяяся8‡яяњяяяП?ПБ?ПяГя<ш?яяЗряя
01:01:10.555;A;$GPGSV,3,2,11,12,24,107,,14,03,224,,21,12,185,,23,06,342,*77
01:01:10.604;B;ЗяяГяяяяя??Б?БГяюА?рП<яряяряяяяяЗяяуш‡яшья?ГряяюяяьЗПяяя?я?Пяяяя?я?яБяяряя??юяьА
01:01:10.680;A;$GPGSV,3,3,11,25,62,108,,29,80,216,,31,55,280,*4D
01:01:10.789;A;$GPGLL,5218.6182,N,01018.5814,E,130553,A,A*45
01:01:10.887;A;$GPBOD,,T,,M,,*47
01:01:10.774;B;яяМя‡яяяxяшяяПяГ>?р??АГяЏяяяАя?яюя?З?y?юья>>ГряПяуяЗяьшя`яЏяяяяяряяП??Зяшшяяgяя
01:01:10.928;A;$GPBWC,130553,,,,,,T,,M,,N,,A*7A
01:01:11.000;A;$GPVTG,98.3,T,96.2,M,6.4,N,11.9,K,A*17
01:01:10.941;B;яя?яюя?рряяПяПюППя?яЃьЗяяяш‡аяg‡яю?ПярxПБшПГ0юП?яярЏя>яяюяуПюяюяяяџ‡њяюПьП?рю0
01:01:11.085;A;$PGRME,3.4,M,4.0,M,5.3,M*2B
01:01:11.144;A;$PGRMZ,166,f,3*1A
01:01:11.185;A;$PGRMM,Potsdam*39
01:01:11.226;A;$GPRTE,1,1,c,*37
01:01:11.110;B;шяяяя9ПГяЏ<яясяяшяягяяяЗПяПГяяяяяџююяџрѓшяяуГ?яя‡яяяряяя?ѓяяьяьшшаЃя?я
01:01:11.263;A;$GPAPB,A,A,,,N,V,V,,,,,,,,A*67
01:01:11.330;A;$SDDBT,12.0,f,3.67,M,2.01,F*34
01:01:11.539;I;$POSMGYR,-200,-350,557*52
01:01:11.539;I;$POSMACC,3748,-15808,-412*67
01:01:11.539;I;$POSMVCC,5143,4943*5E
01:01:12.541;I;$POSMGYR,49,-340,-214*6C
01:01:12.541;I;$POSMACC,2312,-16080,-824*6F
01:01:12.541;I;$POSMVCC,5143,4943*5E
01:01:13.544;I;$POSMGYR,-318,82,167*4C
01:01:13.544;I;$POSMACC,1260,-17036,-112*68
01:01:13.544;I;$POSMVCC,5143,4943*5E
01:01:11.278;B;яяяря?яПзрПяППряяЃПяЗяяшг‡яьяряьП?Пxя?П8ЗрЏ0ьрАюя‡у?ягяющЊ?я?яяяяр~?щ?юяПшяяя
01:01:14.072;A;$GPRMC,130557,A,5218.6174,N,01018.5925,E,6.2,91.6,130714,2.1,E,A*2E
01:01:14.218;A;$GPRMB,A,,,,,,,,,,,,V,A*1C
01:01:14.125;B;яЏПяя?яАПЗБяЗяяПЗПяяюБ0ЗПБяяшБя?яряяяПяяяюушяяьяяяяяПрПя?яряПряяяяуюѓяуш‡яшяП>
01:01:14.276;A;$GPGGA,130557,5218.6174,N,01018.5925,E,1,11,1.2,50.8,M,44.7,M,,*77
01:01:14.293;B;я?юяя?щ?яяяяяшя0Џяя?яю?П9>я9я~яяр>??яя<я?яП??ЏяшяПяПсряуЗяя8я‡ьр?рБПя?ряяя?8П
01:01:14.545;I;$POSMGYR,-147,319,352*71
01:01:14.545;I;$POSMACC,2656,-15736,-272*6A
01:01:14.545;I;$POSMVCC,5143,4943*5E
01:01:14.420;A;$GPGSV,3,1,11,02,27,050,,05,07,089,,06,01,028,-1,10,09,042,*65
01:01:14.461;B;яяярП?я?яя?я?яяПяяяяюП?я?яяяяБя?я?яяяяряЗяяяш‡я‡яяГПя?>я?БяП?яяя?Зяя?шПя<я?ГЗПя
01:01:14.561;A;$GPGSV,3,2,11,12,24,107,,14,03,224,,21,12,185,,23,06,342,*77
01:01:14.685;A;$GPGSV,3,3,11,25,62,108,,29,80,216,,31,55,280,*4D
01:01:14.631;B;<юПюяряяяр?яяяяя?я?ья<З?яяшшашяяряПяяяяряЗяя?П>я??П?яПяяяяБшПрГяПящПГ?яПя8‡сяяа
01:01:14.792;A;$GPGLL,5218.6174,N,01018.5925,E,130557,A,A*4B
01:01:14.893;A;$GPBOD,,T,,M,,*47
01:01:14.800;B;яряП??яяПяБя?яП?юя>я0щяяярюрюь???ЗППюПяясш‡яѓр‡ярx?ясяяя?Зсь8я`яяяяяья>З?ряПП
01:01:14.932;A;$GPBWC,130557,,,,,,T,,M,,N,,A*7E
01:01:15.004;A;$GPVTG,91.6,T,89.5,M,6.2,N,11.4,K,A*19
01:01:14.968;B;?ршяряПяЏя?яяЗщяяшяяxџяП?БяяПя?яяП?ПЏяярярЏПБяПшПяПюПююяуяягЏяр?ряПП?я?яЏяЗПьП
01:01:15.087;A;$PGRME,3.4,M,4.0,M,5.3,M*2B
01:01:15.149;A;$PGRMZ,167,f,3*1B
01:01:15.190;A;$PGRMM,Potsdam*39
01:01:15.228;A;$GPRTE,1,1,c,*37
01:01:15.137;B;яП<ясяяяяяqяПюяЗяяПГПяуяяшџяЏПаЏшяшяяя?яя?яџящПяяБрѓрПяяяьш‡яаяяяПЃПряЏрxПџ
01:01:15.269;A;$GPAPB,A,A,,,N,V,V,,,,,,,,A*67
01:01:15.334;A;$SDDBT,11.7,f,3.58,M,1.96,F*31
01:01:15.546;I;$POSMGYR,-98,1012,463*7E
01:01:15.546;I;$POSMACC,2748,-15816,-708*61
01:01:15.546;I;$POSMVCC,5143,4943*5E
01:01:15.304;B;яяярП?П?яяЗяягяяяя?юрЗП‡я?ящ??qяяПяяяяПь>яяяяяяяьгьуяЂОяьььяяя?ьяььяьь
01:01:16.060;A;$GPRMC,130559,A,5218.6173,N,01018.5980,E,6.3,87.1,130714,2.1,E,A*29
01:01:16.210;A;$GPRMB,A,,,,,,,,,,,,V,A*1C
01:01:16.134;B;уяьяяьягяяььяяя?я<яг|яьПю?ь>яьяяаџяяяяяярряяПП0ПяxПяуБяяя?‡яx‡яяяГяЗяБПю?яА
01:01:16.266;A;$GPGGA,130559,5218.6173,N,01018.5980,E,1,11,1.2,50.9,M,44.7,M,,*70
01:01:16.304;B;яяя?ьрЏя?яя?АП>>я?ряр?ПБ?ПяП<яяяя?ПяПш?яЗяЏПяуЗяяяш‡њшяяПБПяяП?яяяЗряЗяПяАюяяЗ
01:01:16.409;A;$GPGSV,3,1,11,02,27,050,,05,07,089,,06,01,028,-1,10,09,042,*65
01:01:16.548;I;$POSMGYR,-154,420,231*7A
01:01:16.548;I;$POSMACC,2036,-16248,-16*55
01:01:16.548;I;$POSMVCC,5143,4943*5E
01:01:16.472;B;я??БяяяЗя??яяяАрПБяя??А?яяяяППЗяя8‡аяяяПяяьяю?П?ьяя?П?яшярю?яя<яяяЗПяья0яяПяАяя
01:01:16.544;A;$GPGSV,3,2,11,12,24,107,,14,03,224,,21,13,185,,23,06,342,*76
01:01:16.674;A;$GPGSV,3,3,11,25,62,108,,29,80,216,,31,55,280,*4D
01:01:16.640;B;рГГП?яя?я?яП?ш8‡яњшяГ??я?ярГюПяьяяя?яя<Б?я?яяяяПя?ярщяяя?яПя?шяяш‡аяяП??яАП8
01:01:16.783;A;$GPGLL,5218.6173,N,01018.5980,E,130559,A,A*4D
01:01:16.880;A;$GPBOD,,T,,M,,*47
01:01:16.809;B;яяяяЏ??я?я?П?ю???яяяяяЗ??яяяяьшяяья`яяшяПяя0яяПяяЗяь?яяья|Пяя?я?>?0П?ПяяППсППр?
01:01:16.921;A;$GPBWC,130559,,,,,,T,,M,,N,,A*70
01:01:16.993;A;$GPVTG,87.1,T,85.0,M,6.3,N,11.6,K,A*13
01:01:17.078;A;$PGRME,3.4,M,4.0,M,5.3,M*2B
01:01:16.977;B;яЃяЗясьяяяяяП?З?Б???>я?яяПЗПьяЏП?яП?ПяПЃПяяяяшя‡ююПья?яяяЗряряП9яГяяМьяяяя‡я
01:01:17.138;A;$PGRMZ,167,f,3*1B
01:01:17.178;A;$PGRMM,Potsdam*39
01:01:17.219;A;$GPRTE,1,1,c,*37
01:01:17.147;B;ягяБшЗяя??яяяяяяя‡гяяраЏяяяqуГБяя‡џяя‡р>Пяяя?у<яяьш‡яяаяяПяП?яЏрџ?яяя?ПяяПряП
01:01:17.256;A;$GPAPB,A,A,,,N,V,V,,,,,,,,A*67
01:01:17.326;A;$SDDBT,11.9,f,3.62,M,1.98,F*38
01:01:17.550;I;$POSMGYR,76,379,379*60
01:01:17.550;I;$POSMACC,2732,-15656,-416*6A
01:01:17.550;I;$POSMVCC,5143,4943*5E
01:01:18.552;I;$POSMGYR,-186,225,151*73
01:01:18.552;I;$POSMACC,2524,-15520,-444*6A
01:01:18.552;I;$POSMVCC,5143,4943*5E
01:01:19.553;I;$POSMGYR,-27,15,-454*55
01:01:19.553;I;$POSMACC,1236,-17752,-1120*5E
01:01:19.553;I;$POSMVCC,5143,4943*5E
01:01:17.315;B;?Зюяшяя‡яяя?БП?ПяГяшяяЏяяя?АП‡яяАяяяяющь>?яА??Гр??яю?яяБЗ?яЏяяБяяя?я?я?р‡я8Пш0
01:01:20.075;A;$GPRMC,130603,A,5218.6172,N,01018.6100,E,6.4,95.1,130714,2.1,E,A*23
01:01:20.221;A;$GPRMB,A,,,,,,,,,,,,V,A*1C
01:01:20.171;B;?яя?0яяяЗБ?яяряПяяЃяь?яяшшяясяяяяяя?яр?яяряяярЃу?ѓсяш‡я‡xяПяьАяяья????ПЗ?ЗяярПяя
01:01:20.281;A;$GPGGA,130603,5218.6172,N,01018.6100,E,1,10,1.2,51.0,M,44.7,M,,*77
01:01:20.337;B;яя????яяяюряяБяяяПяП??ряяЏяя?яЗПЋр0яЗяяяяяшгgПяП?ПюяПяГя?яяАюАяяАщяА?0?яБПр?яяя
01:01:20.422;A;$GPGSV,3,1,10,02,27,050,,05,07,089,,10,09,042,,12,24,107,*76
01:01:20.555;I;$POSMGYR,-62,-377,287*6B
01:01:20.555;I;$POSMACC,588,-16600,-288*5A
01:01:20.555;I;$POSMVCC,5143,4943*5E
01:01:20.507;B;?П?яГПя?яПь?яяя?Пь??уш‡я‡гяяяряряяя??яАяяГ<??Пя?я?ГП?яюяПяГяяя0я??рряюяяГ?юА??я
01:01:20.552;A;$GPGSV,3,2,10,14,03,224,,21,13,185,,23,06,341,,25,62,108,*7D
01:01:20.686;A;$GPGSV,3,3,10,29,80,216,,31,55,280,*76
01:01:20.675;B;З‡яяшяяяџ?ьяьр??П?яяяяя?Б?яПяБ?щЗ????Пяяяшяашяя?яюяяЗ>яярЏП?я?ю?ПЗ?яяПяяБяАЗ
01:01:20.771;A;$GPGLL,5218.6172,N,01018.6100,E,130603,A,A*43
01:01:20.867;A;$GPBOD,,T,,M,,*47
01:01:20.910;A;$GPBWC,130603,,,,,,T,,M,,N,,A*7C
01:01:20.844;B;?<ПЃяюяяГюяяяЏяяПяППЋПП3яшюш‡язяряяяЗяГ?яПяП?шрПс?яярПяуяьюяшшяяџшряюПБПя??
01:01:20.978;A;$GPVTG,95.1,T,93.0,M,6.4,N,11.8,K,A*1E
01:01:21.064;A;$PGRME,3.4,M,4.0,M,5.3,M*2B
01:01:21.126;A;$PGRMZ,167,f,3*1B
01:01:21.013;B;яяПсПшя?ПЏПяюр?яу?яПяюсшяшясяП?я?яяП?ПяяqП?яяяЋя<сяшџяяюџПя?я?ярГя>яя?агяЋПџ
01:01:21.164;A;$PGRMM,Potsdam*39
01:01:21.206;A;$GPRTE,1,1,c,*37
01:01:21.243;A;$GPAPB,A,A,,,N,V,V,,,,,,,,A*67
01:01:21.181;B;Џь‡яяя<?юьш‡яџзюряяяПяяяГЗяья‡яяяяяяяяяяЏршяя?яяяяяряяМяЗяяшяшяѓяПяьПяяяяГ?З8я
01:01:21.310;A;$SDDBT,12.0,f,3.66,M,2.00,F*34
01:01:21.557;I;$POSMGYR,-87,-306,676*6C
01:01:21.557;I;$POSMACC,444,-17028,-1064*67
01:01:21.557;I;$POSMVCC,5143,4943*5E
01:01:21.350;B;яя?р?АяяяяшсгЗсяьяя?яьрОяюьБ?Пшяя?ПЏяАяя?яПя>яьящяяПяя?ьП?яюьАЗ>шр?я?яяя?яя
01:01:22.064;A;$GPRMC,130605,A,5218.6168,N,01018.6152,E,6.3,93.6,130714,2.1,E,A*2F
01:01:22.212;A;$GPRMB,A,,,,,,,,,,,,V,A*1C
01:01:22.206;B;яшяяЏяяяяя?рП?ПяПяяря?ЃяюььшшяяяяБ<А?АЖПюяБяПя?ш?яяП?я?я??яя>яяяяяП>яя>ПЗяюяя
